Facility_Name,Latitude,Longitude,Type
Barakat Optical Dso Branch,25.127201755739,55.396687783454375,Optometry
Get On Track,25.13456170915173,55.19994601612464,Physiotherapy
Dr Johnny Sayegh Clinic,25.20054646533093,55.26622030351874,Pediatrics
Omniyati Prosthetics Arts Center,25.25674670992911,55.32658728700616,Prosthetics and Orthotics
Specialized Medical And Dental Center,25.240491701043812,55.27217877452317,General Dentistry
Family First Medical Center LLC,25.170577,55.150404,Obstetrics and Gynecology
The Wonder Years Nursery,25.04020717106067,55.2189878743736,Nursing
Dr Roze And Associates Dental Clinic LLC,25.15233890004707,55.20137268713838,General Dentistry
Dr Michaels Dental Clinic Branch,25.15738637158238,55.21759458074784,General Dentistry
Cavallo Clinic L L C,25.165322497510505,55.22324670111316,Plastic Surgery
The White House Clinic LLC,25.134549010568424,55.19943924625888,Obstetrics and Gynecology
Dibber Hills Early Childhood Center L.L.C,25.01086315823145,55.25524242032897,Nursing
Dr Inas Nutrition Center,25.22284342881246,55.42451731063357,Clinical Dietetics and Nutrition
German Dental And Neuromuscular Clinic DMCC,25.077126397829986,55.14967526868478,Periodontics
Platinum Medical Center,25.220517709945597,55.25432544780938,Prosthodontics
Oris Dental Center Branch,25.139560005650985,55.190513860485694,General Dentistry
Chubby Cheeks Nursery Branch,25.29738645374914,55.36452950971815,Nursing
Kidz Mate Nursery,25.28967185332682,55.35770915295683,Nursing
New Health Call JLT,25.07787817989189,55.155195840698944,General Dentistry
Clinica JoeLLE,25.182872200484315,55.22564751024339,Plastic Surgery
Doctor Haitham Salman Salih Plastic Surgery Clinc,25.28775946003113,55.3654736974216,Plastic Surgery
American Medical Center,25.07738593420777,55.155066349234176,General Dentistry
PARAMOUNT DENTAL CLINIC L L C,25.15381414445596,55.24553535511272,General Dentistry
Al Arafat Optical,25.24567803344228,55.30223275907379,Optometry
Belhasa Driving Center-Nad Alhamar,25.18639566698517,55.37820665585816,Optometry
Credence High School LLC,25.15250049068141,55.24875853215833,General Practice
Emirates British Nursery Fzco,25.128077245452904,55.39726520934248,Nursing
Dubai International Driving Center,24.964206175323746,55.19133156778278,Optometry
Votre Slimming Therapy Center,25.00463285098997,55.15448766224898,Nursing
Dewa,25.227604656441272,55.32418671436514,Nursing
Oakfield Early Learning Centre,25.068847337063723,55.14587149349014,Nursing
Dabi Smile Dental Clinic LLC,25.217453786187324,55.26084993039747,General Dentistry
Milano Vision Optics LLC,25.26775629798733,55.31586186622627,Optometry
Optimum Diagnostic Clinic Dmcc,25.0798961837887,55.152773064354825,General Dentistry
Dubai British Foundation Kindergarten Br Taaleem,25.05298441497971,55.16909409974879,Nursing
Green Dental Lab,25.236099170954983,55.27630973175113,Dental Lab - Dental Clinical Support
Bissan Dental Center L L C,25.098836403363475,55.176330674491055,General Dentistry
Baby Home Nursery,25.063398135849333,55.13791674753198,Nursing
Davinci Dental Laboratory L.L.C,25.22179646112769,55.28145592556351,Dental Lab - Dental Clinical Support
Safa Community School,25.061793670135195,55.24832034476292,Nursing
Cosmo Secrets Medical Centre LLC,25.11697600216779,55.19648763605462,General Practice
BETTERCARE MEDICAL CENTER LLC,25.16056502664272,55.41988603659491,General Practice
Total Dental Care LLC,25.297193243205516,55.38262928589838,Pediatric Dentistry
Medeor 24X7 Pharmacy,25.25749491098809,55.30637058379788,Pharmacy
Conceive The Gynaecology Centre Dmcc,25.077030344049383,55.154600451770925,Reproductive Medicine and Infertility
Aster Hospital Pharmacy Br Aster Dm Healthcare Fzc Dubai Branch,25.252916025952672,55.28918721718275,Pharmacy
Afak Medical Center,25.26062431747584,55.31980605801132,General Dentistry
DermaPremier Poly Clinic L L C,25.183733054460195,55.22635018458145,General Practice
International Modern Hospital Pharmacy,25.248422188013784,55.28302448056552,Pharmacy
Yateem Optician Llc Branch,25.20987239577903,55.25565529136034,Optometry
Apa Aesthetic Dental And Cosmetic Center LLC,25.143384067551835,55.19996265214208,General Dentistry
Park Avenue Dental Clinic,25.052490093977184,55.23158670866016,Orthodontics
Burjeel Hospital For Advanced Surgery Pharmacy,25.14662004898853,55.223716371487725,Pharmacy
Bay Avenue Dental Centre,25.1865696592708,55.260774608922006,General Dentistry
Dr Joy Dental Clinic Llc -Branch,25.251596195609466,55.30129715607288,Orthodontics
Reach Out Dmcc,25.06301613061229,55.1375771966345,Speech Therapy
Canadian Specialist Hospital Pharmacy,25.27750321123873,55.34885386561166,Pharmacy
Inspire Therapy,25.079106394239847,55.14994251007956,Occupational Therapy
The Dome Meddental Clinic Dmcc,25.062825067902896,55.13774296144424,General Dentistry
Talking Brains Center -FZE,25.112007542620702,55.38445621764951,Speech Therapy
A C E Optical,25.050227447878868,55.133898248473045,Optometry
Bloom Aesthetic Andlaser Clinic L L C,25.1419357916435,55.206546319550384,Plastic Surgery
Ranches Primary School,25.029200170255027,55.27161754206384,General Practice
American University In Dubai,25.090719619789244,55.15594672416817,Nursing
Legacy Dental Center L L C,25.18932924792316,55.26964307132738,General Dentistry
DERMA ONE MEDICAL CENTRE DMCC,25.064643396808577,55.13848370750198,Dermatology
Shapoorji Pallonji Mideast LLC - Company Clinic,24.97390110058448,55.203025638771614,General Practice
Taiy Pradit Physical Medicine And Rehabilitation Center L L C Branch,25.136864279257992,55.197185488900914,Physiotherapy
ISD Medical Clinic LLC,25.038613409537184,55.22689289786612,Clinical Dietetics and Nutrition
3 Nveneers Dental Laboratory,25.221504173124817,55.281378745111176,Dental Lab - Dental Clinical Support
D N A Health Medical Center LLC,25.152883445963926,55.215310154473,Family Medicine
Smile Essentials Dental Clinic L.L.C,25.24573892187588,55.30223701909664,General Dentistry
Luminance Dental Center,25.14575039629766,55.40186048599703,Implantology
Luminance Dental Center,25.14575039629766,55.40186048599703,General Dentistry
Dr Racha Ghazal Cosmetic Dentistry LLC,25.22844205965744,55.261056058902895,General Dentistry
Clove Dental Clinic LLC,25.218050973728097,55.27908709562722,General Dentistry
Bin Arab Dental Centre Branch,25.178553922633245,55.234607589639246,General Dentistry
Manhal Medical Center LLC,25.17724678958562,55.24527577143766,General Dentistry
CRYO HEALTH CLINIC L.L.C,25.216967627206635,55.28223485408185,Physiotherapy
Oak Tree Primary School L L C,25.149492888708792,55.24730164341846,General Practice
Widad Center For Disability And Child Development,25.21216329655164,55.27097811927578,Speech Therapy
Hoor Al Aliaa Polyclinic L L C,25.150045598880528,55.21247109403388,General Dentistry
Lafamilia Medical Center LLC,25.082801507773148,55.2030510238951,Pediatrics
Kent College Llc - Fz,25.125447112025565,55.35742687927995,Nursing
Dr Joy Dental Clinic- Llc Branch-Ummsuquim,25.14313585170704,55.2072965123915,Orthodontics
Vienna Dental Clinic Fz LLC,25.08949908895892,55.15221753162812,General Dentistry
Alpha Medical Laboratory,25.10314895511017,55.17688516594053,Clinical Pathology
Ideal Fit Rehabilitation Center LLC,25.209862589697405,55.255434110007634,Clinical Dietetics and Nutrition
Optic Point Optics L L C,25.27539500744926,55.31161662594998,Optometry
Pure European Chiropractic And Physiotherapy Center,25.0469026109939,55.23602540068247,Chiropractor
Tamam Optical L.L.C,25.267013339349315,55.37991897208185,Optometry
Prime Medical Center Reef Mall Br Of Prime Medical Center L L C,25.270426850138588,55.32213272269337,Internal Medicine
Oxygen Plus Medical Center L L C,25.229588985084355,55.28695003573709,Implantology
Emirates British Nursery,25.222648300994663,55.43533830128988,Nursing
Dibber Early Childhood Center ,25.027138860919536,55.27501970534704,Nursing
Red Wood Nursery Br Of Kids First Group L L C,25.11243916900731,55.1403441232483,Nursing
Amity Early Learning Center LLC,25.054794036669783,55.16697943806077,Nursing
Skin Iii LLC,25.2139449736188,55.28273321012723,General Practice
VELCARE ORTHODONTIC & DENTAL CLINIC L.L.C,25.189857836836197,55.40450401609336,General Dentistry
Emirates Airline Clinic Branch 3,24.86369400958026,55.15576995156584,General Practice
Kashmah Opticals L.L.C,25.261551380716664,55.441374681774384,Optometry
New Ivory Dental And Implant Clinic LLC,25.19221381543336,55.26648103010034,Implantology
Via Medical Center And Plastic Surgery,25.20938209726029,55.24567265068669,Plastic Surgery
Newlands School,25.185910547175617,55.4017693363646,General Practice
Vip Doctor L.L.C,25.143361719374088,55.24660767316853,General Practice
Duval Digital Smile Design Polyclinic LLC,25.209651507070017,55.24636544900465,General Dentistry
Anatomy Rehab LLC,25.105345752223865,55.149627523428414,Physiotherapy
Bulgari Resort Dubai L.L.C,25.170577,55.150404,Nursing
Rivoli Br Of Rivoli Enterprises Llc Dubai Marina,25.07623372510585,55.14070368757004,Optometry
Lutetia Br Of Al Futtaim Aesthetics Clinics Single Person Company,25.226438246288424,55.35251098521075,Plastic Surgery
Behaviour Enrichment Child Therapy Centre,25.109738201741017,55.19745542275148,Speech Therapy
Vip Doctor L.L.C Branch,25.131808091360355,55.18442295746566,General Practice
Clinica Sabah LLC,25.150359362149704,55.19951993448012,Prosthodontics
Dr Joy Dental Clinic Llc Branch- Palm Jumeirah,25.11041587089447,55.14189224326275,Pediatric Dentistry
Dr Safar Al Shahrani Medical Centre,25.2622592845516,55.32643896841159,General Dentistry
Casa Optics Llc Branch,25.232823433967983,55.277310962326965,Optometry
Star Bright Early Intervention Center,25.18490319407634,55.28103313013184,Speech Therapy
Hareer Medical Centre L L C,25.11878019552068,55.207411409808806,General Practice
Aster Optics 5 Br Of Aster Opticals LLC,25.17851410959373,55.24719949076927,Optometry
YOGA ASHRAM DMCC ,25.08005360537836,55.152960982948606,Physiotherapy
Medsol Dubai Medical Laboratory Br of Medsol Al Abbar Laboratories for Research & Medical Analysis LLC,25.26494914093671,55.32133132346966,Clinical Pathology
Dentcare J B R Medical Center,25.080803829467204,55.13819912133965,General Dentistry
Al Abrah Clinic,25.269038655001538,55.29527599321336,General Dentistry
White Line Dental Clinic LLC,25.265854211385065,55.31990331128805,General Dentistry
Bin Arab Dental And Medical Centre,25.2636,55.3226,General Dentistry
Aysha Mohamed Dental Clinic L L C ,25.2623,55.329,General Dentistry
Al Ula Clinic,25.24588578610426,55.30730684938928,General Practice
Dr. Zeinab Dental Clinic,25.2478,55.3007,General Dentistry
Dental Home,25.2380381378199,55.27285876335402,General Dentistry
labib dental center LLC,25.236947550179583,55.42062053148483,General Dentistry
Dr. Radhi Al Hilou E.N.T. Clinic,25.24151479468277,55.27163591928017,Otolaryngology
Dr. Michael Dental Clinic,25.2054,55.252,General Dentistry
Dr. Jack Dental Clinic,25.26862613001195,55.30815475488612,General Dentistry
Medlink Clinic,25.22963701954868,55.26292826589539,Obstetrics and Gynecology
Dr. Mohammed Kunhi Medical Clinic,25.2737,55.3023,General Practice
Dubai Optical - City Centre,25.2517,55.3328,Optometry
Osteopathic Health Centre,25.148281836905653,55.211086403629935,Osteopathy
Perfect Vision - Al Musalla Branch,25.262645319124477,55.29862245782422,Optometry
Lunettes(House Of Quality Optics)- Umm Soqeim Branch,25.168603601771185,55.22838845199757,Optometry
Lunettes(House Of Quality Optics) L.L.C,25.004599333127217,55.16487897472594,Optometry
Yateem Optician - Al Riga Branch,25.2656,55.3205,Optometry
Al Sham Optics - Naif Branch,25.27133180635949,55.302271968056594,Optometry
The General Medical Centre Br2Of G M C Healthcare LLC,25.225355993040367,55.28220199053668,General Dentistry
Al Safa Opticals,25.272014779062264,55.30228880239213,Optometry
Al Rashid Al Saleh Pvt. School Clinic,25.2369,55.3181,General Practice
Shabab Alahli Club Clinic,25.29173816095843,55.35097805011026,Physiotherapy
Buds Public School,25.240550546613523,55.40719921548271,Nursing
Dubai National School(Al Qusais),25.278746829873796,55.36859865451362,General Practice
Dubai Carmel School,25.2965691113498,55.37952040042271,Nursing
Dubai Gem Pvt.School Clinic,25.23618981759955,55.31562313888065,General Practice
RED WOOD NURSERY1(BR OF KIDS FIRST GROUP L.L.C),25.244170912291807,55.34752557463828,Nursing
Little Land Nursery,25.15720051217048,55.2085877974664,Nursing
The Oxford School,25.28112590225839,55.402456908951066,General Practice
Pakistan Education Acedemy,25.241894357082924,55.31692033639801,General Practice
Queen International School,25.283353566698768,55.34863710752047,Nursing
Our Own Indian School. School Clinic,25.17136422505695,55.260576521783136,General Practice
The Westminster School(Br Of Gems Wellington Academy FZE) Dubai Branch,25.2831,55.3709,General Practice
Dubai Center For Special Needs,25.1898,55.2526,General Practice
Emirates British Nursery Lcc Branch,25.043471815881187,55.23235126791894,Nursing
OPTICRAFT TRADING L L C,25.24569099576972,55.30208691889017,Optometry
Vision and Style Opticals,25.2718,55.3727,Optometry
STANDARD MEDICAL CLINIC L L C,25.1395,55.2036,General Dentistry
Pearl Medical Clinic,25.26820700141074,55.305518140682594,General Dentistry
Super Vision Optical Bin Sougat Center,25.23272941423022,55.3852598955457,Optometry
Rashid Center for People of Determination,25.117698690216365,55.20532556462692,Nursing
Dentamax Medical Center,25.267080309068987,55.38010117779998,Homeopathy
Childrens Oasis Nursey,25.147495614388163,55.20056569022611,Nursing
Yateem Optic - Al Dayafah Road,25.23750774099048,55.27475601067327,Optometry
Seven Dental Centre,25.18223956695309,55.22514251997249,General Practice
DENTAL STUDIO BEACH ROAD L L C,25.1843,55.2278,General Dentistry
Delhi Private School,25.039,55.1219,General Practice
New Derma Health International Medical Centre,25.23450147026194,55.27821169746928,Orthodontics
Dubai Autism Rehabilitation and Care Center,25.240270542004367,55.34709149976759,Clinical Psychology
The Winchester School,25.040598646760955,55.12096007359691,General Practice
Galadari Motor Driving Center,25.290442179548187,55.400820407605536,Optometry
Al Hamriya Optics,25.283959309956607,55.341259313437895,Optometry
cosmo health medical center ,25.16560447938744,55.22440503879664,Dermatology
Al Jameela Polyclinic,25.276661658369093,55.31307239428425,Obstetrics and Gynecology
American International School,25.28348198779992,55.36857030421426,General Practice
Senses Residential and Day Care for Special Needs,25.135080810220185,55.19500558391901,General Practice
Al Rowaad Dental Center,25.26504262301394,55.32658781001192,General Dentistry
Dubai Cosmetic Surgery,25.16605849309423,55.21362765589707,General Practice
Yateem Optician - Souk Madinat Jumeirah,25.133717228534184,55.186064604026384,Optometry
French International Private School,25.24126348823772,55.313255574829405,Nursing
Dubai International Private School- Br,25.168953076959745,55.26369005446812,General Practice
Al Nibras Private School,24.999831743479977,55.1723117546365,General Practice
Providence Dental Centre,25.246185157127936,55.301771174361086,General Dentistry
Widex Medical Equipment,25.21408594490145,55.27687477605245,Audiology
Philadelphia Private School,25.27821964595963,55.40168570060182,General Practice
Spex Optician(L.L.C),25.278674417145577,55.38600577628874,Optometry
Silkor Laser Hair Removal,25.1583,55.2061,Dermatology
Iwona Specialty Clinic LLC,25.17215639008174,55.217462947956086,Plastic Surgery
Barakat Optical Br.Dubai Outlet,25.07264185941257,55.40003597469883,Optometry
Opti Vision Glasses Trading LLC,25.22228827205205,55.35380449510746,Optometry
Al Jaber Optical Center(Br),25.073038218406893,55.4012001494979,Optometry
Intercontinental Dubai Festival City - Hotel,25.219858942401792,55.35133825529352,Nursing
Med Gate Center,25.159061095934984,55.20751125534717,Neurosurgery
Malak Typing . Photocopying and Optical,25.124019035161588,55.20516308029667,Optometry
Kaya Skin Care Clinic(Marina Branch),25.08214775136208,55.13826576981933,Dermatology
Drs. Nicolas and Asp Centre (Branch),25.06596248367266,55.1921691689283,General Dentistry
M and A Beauty Center,25.2251877028685,55.41819834753142,Dermatology
University Of Dubai,25.10581810961021,55.41391136129891,Nursing
Cocoona Aesthetic Transformation Centre,25.165126222104863,55.22358774679391,Plastic Surgery
Infinity Dental Center Dmcc,25.06851071941664,55.14065145475986,General Dentistry
Medwin Medical Centre,25.1812,55.2243,Endocrinology
Emirates Down Syndrome Association  ,25.28261166112549,55.37515094469123,Occupational Therapy
FIRST PRIORITY MEDICAL CENTER,25.202292925438453,55.267986371512805,General Dentistry
Rond Point Clinic,25.230602561519696,55.26171519426188,Dermatology
Dubai Marina Nursery(Br- Of Raffles Int. School),25.084915830801336,55.14878830240752,Nursing
Dental Health Clinic,25.0407336697288,55.11640657107409,General Dentistry
Al Taie Center For Laparoscopic And Obesity Surgery,25.1948,55.2357,General Surgery
Cars Taxi - Company Clinic ,25.120340301678628,55.21957525988595,Nursing
Sultan Al Olama Medical Center- Br,25.139627909364265,55.21706139117896,Prosthodontics
Rivoli Eye Zone Dubai Mall Br-Excel Enterprises LLC,25.196886470361928,55.28055134061215,Optometry
Al Wasl Sport Club,25.21786061992619,55.31733371458365,Sports Medicine
M M I Dental Center,25.20093489906304,55.26679999200186,General Dentistry
Cosmesurge Clinics Llc Branch,25.085501424060283,55.14132323679993,Dermatology
Pharaohs Physical Medicine & Rehabilitation  Center L.L.C,25.229270195333942,55.31966170996811,Physiotherapy
TINKERMOON POLY CLINIC LLC,25.22842345882692,55.26100709715281,General Dentistry
Vernus International Primary School,25.124388887532305,55.40496498744002,Nursing
yaqin medical center,25.252800369358887,55.342177503991685,Dermatology
GULF CARE DIAGNOSTIC CENTER LLC,25.25949593947826,55.29402891130592,Clinical Pathology
COSMO STAR POLY CLINIC,25.22435664331377,55.26547017076267,General Dentistry
Dr. Roze Biohealth Clinics,25.214000203888293,55.28155542211723,General Dentistry
La Joya Poly Clinic,25.29765580211684,55.36015529787942,General Dentistry
HEALTH AVENUE PLUS POLYCLINIC LLC,25.090091775830853,55.31534349540803,General Practice
Gulf Family Clinic DMCC ,25.079266385727923,55.149670636725936,Ophthalmology
VALERA CLINICS,25.21860199847817,55.25360725771644,Plastic Surgery
SPRINGFIELD INTERNATIONAL SCHOOL L.L.C,25.17373813783422,55.53745617163883,General Practice
Veil O Laser and cosmetic center LLC,25.26179315204832,55.319615899510886,Dermatology
REACH CHILD DEVELOPMENT AND FAMILY SUPPORT,25.20103623627238,55.41389778261577,Speech Therapy
Physio Plus,25.152095393301128,55.21334080030696,Physiotherapy
A H T AESTHETIC MEDICAL CENTER,25.118794551259448,55.20743143803614,Plastic Surgery
MERINT DETERMINATION CENTER LLC,25.267530041770325,55.40575115946625,Speech Therapy
RIVOLI EYE ZONE BR OF EXCEL ENTERPRISES L L C,25.101521494029715,55.23874413653251,Optometry
Maharat Learning Center,25.231683648437155,55.3470848834524,Speech Therapy
Adora Medical Center LLC,25.2448048822001,55.339545935175614,General Practice
Dubai Electricity Water Authority  AL HUDAIBA BR,25.244523310708388,55.28200653252843,Nursing
Al Wasl Aesthetic Poly Clinic,25.1632760480296,55.222010549173504,Urology
AL SHAN OPTICALS L.L.C (BRANCH),25.28728178172717,55.36966256793306,Optometry
J HOPKINS MEDICAL AND COSMETIC CENTER,25.11162587260568,55.38342084168217,Implantology
Apex Medical Clinics LLC Branch,25.04619226512457,55.2354344532293,General Dentistry
Medrose Medical center LLC,25.09645499992435,55.17669805438925,General Practice
OURONYX CLINIC L.L.C,25.188146162950527,55.26709032913178,General Practice
QUTTAINAH PHARMACY L.L.C,25.139976027080724,55.20417276925596,Pharmacy
TITAN GLOBAL RETAIL LLC  BRANCH ,25.253343254902365,55.3021254122385,Optometry
JOINT SPACE POLYCLINIC LLC,25.143201504544823,55.22463016625902,General Practice
Aesthetica shyma poly clinic ,25.04594765259543,55.23555428813941,General Practice
ORIS DENTAL CENTER BRANCH 1,25.23263039113228,55.434614255872965,General Dentistry
ASTER MEDICAL CENTRE JABAL ALI 2 BR OF DM HEALTHCARE LLC,25.00666365387693,55.10553229089945,General Practice
Dr Freda Medical Center,25.22645880004878,55.34051061613051,General Dentistry
Wellbeing Care Clinic LLC,25.148264324762305,55.21087808870841,Orthopedic Surgery
BROWNS AND CO CLINIC L.L.C,25.216481192052825,55.260632252372105,General Practice
Nagem Dental Diet & Laser Center LLC Branch,25.04551601714457,55.23190388652984,General Dentistry
INFRAFIT SLIMMING THERAPY CENTER LLC,25.18865851657928,55.38357008941617,Physiotherapy
THE AMERICAN EUROPEAN PLASTIC SURGERY CLINIC L.L.C,25.12623584904452,55.20506626058569,Plastic Surgery
WINDSOR MEDICAL CENTER L.L.C,25.16382268876229,55.22327644398529,Psychiatry
GENIX EYE WEAR TRADING LLC,25.274974909491245,55.29785017990359,Optometry
BIONIX MEDSPA LLC (BRANCH) ,25.11887567784997,55.20740257766138,Plastic Surgery
VISION & STYLE OPTICALS (LLC) (BR),24.995378884658603,55.15463705646102,Optometry
APPOLONIA PEDIATRIC DENTAL CENTER L.L.C-DUBAI BRANCH,25.142588152494778,55.20655400184513,Orthodontics
HEALIA MEDICAL CENTER L.L.C,25.13957257153649,55.21700440567224,Obstetrics and Gynecology
ASTER OPTICS 8 BR OF ASTER OPTICALS LLC,25.188949584394425,55.40816134356887,Optometry
En Vogue Beauty & Medical Center Ltd,25.20526551953237,55.27498531277004,Dermatology
National Charity School Boys,25.23862923549853,55.34658328329735,General Practice
Studio Republik Physiotherapy Center,25.131447895571892,55.21104814320474,Massage - Physiotherapy
STILA OPTICALS TRADING LLC,25.272399904811444,55.30218819971045,Optometry
Drrosan Humydani Dermatology Andbeauty Clinic LLC,25.19645650417027,55.24598283539229,Dermatology
Hemam Learning Difficulties Center,25.10924333304295,55.18388089099889,Speech Therapy
AVANTI WORLDS FINEST EYEWEAR,25.21332363710883,55.28044828365193,Optometry
FRAME BY SARAH BATTIKHA DERMATOLOGY CLINIC,25.216014921016583,55.26004012153793,Dermatology
Tajmeel Royal Clinic,25.13158793981739,55.21196764259459,Dermatology
MVR Diagnostic Clinic LLC,25.252423311361618,55.342903334115206,Diagnostic Radiology
Seven Dimensions Medical Center LLC,25.057086898037284,55.241958545572345,General Dentistry
Takeoff beauty clinic L.L.C,25.28752840810695,55.40066618228422,General Practice
Landmark Group -Company Clinic,25.00092527381244,55.11179229006071,General Practice
AVA AESTHETIC POLY CLINIC,25.118768577578205,55.20738338558931,General Dentistry
MAHAN POLY CLINIC L L C,25.180565698388147,55.26763383961038,General Practice
BLOSSOMS CHILD DEVELOPMENT CENTRE L.L.C,25.28761258592452,55.36897512957776,Speech Therapy
Leila Hariri Dental and Medical Aesthetics LLC,25.206199438970383,55.25285084023589,General Dentistry
Clover Medical Centre LLC (Branch),25.222282448116527,55.44125615433077,Endodontics
Bella Rose Plus Medical Center,25.229878299112,55.262847884132455,General Dentistry
Zabeel Medical Center - PHC,25.202181,55.283804,Family Medicine
Visique optical Retail Spectacles trading LLC ,25.103795265135645,55.2391655975307,Optometry
Nadd Al Hammar Medical Center - PHC,25.199377,55.378917,Family Medicine
A G CARE MEDICAL CENTER FZCO ,25.123072654456035,55.39970372514557,General Practice
BODY MECHANICS L.L.C,25.221877257466005,55.40838639500672,Physiotherapy
BENESSERE POLY CLINIC L L C,25.160887021141296,55.40915662679388,General Practice
Apex Dental And Implant Clinic-FZCO,25.121558364489683,55.373417892621646,General Dentistry
VISION & STYLE OPTICALS (L.L.C) (BRANCH ),25.03284903245515,55.140861896849366,Optometry
BEAUTY STYLE CLINIC,25.22299093007735,55.28230236984792,Family Medicine
KINETIC Integrated health centre L.L.C,25.163569787400032,55.22307008982748,Osteopathy
Smart Opticals,25.245598369465952,55.30291030460379,Optometry
Al Qusais Star PolyClinic (Branch),25.26019312513595,55.42466359953831,Internal Medicine
Harmony Centre For Child & Adolescent  Mental Health FZ LL,25.23424976466259,55.318120873698064,General Practice
Circle Care Clinic LLC,25.14338280129097,55.20003610552904,Pediatrics
ART OF AESTHETIC POLY CLINIC,25.19112666531593,55.27807447740129,General Dentistry
GENOMED POLY CLINIC,25.18801207955616,55.26170467329364,General Practice
HOLLYWOOD SMILE FIVESTAR POLYCLINIC  L L C,25.192703560339627,55.23409000965832,General Practice
LA BELLEZA AESTHETICA CLINIC L.L.C,25.18871404032828,55.38375216034928,General Dentistry
REBORN CLINIC LTD,25.21388251314719,55.28099923884464,General Surgery
Lens and Frames Optics Trading L.L.C (Br),25.24701380450982,55.30249860784316,Optometry
OYOON LULU EYEXPRESS OPTICAL - DUBAI BRANCH,25.279310364180837,55.361814905278095,Optometry
KINDER CASTLE MEYDAN NURSERY L.L.C - FZ,25.142223313207197,55.31497174189918,Nursing
VIP Doctor LLC branch,25.083218207162115,55.31786859730505,General Practice
Odyssey Nursery LLC ,25.16440021529852,55.27457670170259,Nursing
Viva Dental Laboratory,25.242343081833035,55.27542193476605,Dental Lab - Dental Clinical Support
Signature By Dr Naeem Orthodontic And Dentofacial Aesthetic,25.200395764422577,55.2668315772497,Orthodontics
JUMAIRAH INTERNATIONAL NURSERY BRANCH,25.076927662500378,55.13462508477232,Nursing
AL Zikra Opticals L.L.C,25.282796650200822,55.340929725323086,Optometry
Al Boom Marine LLC Branch,25.25086377846029,55.3335366478978,Optometry
AL LAILAK ALABYAD GENERAL DENTAL CLINIC,25.25872664419924,55.32408116840016,General Dentistry
FACES AND BRACES DENTAL CLINIC L.L.C,25.25499715918132,55.30511175211497,General Dentistry
Magnum VIP Clinic LLC ,25.060327488120137,55.24107838805089,Orthodontics
PEARL DENTAL CLINIC L.L.C (BRANCH),25.186044884990743,55.23799760067303,General Dentistry
Movement ON Physiotherapy Center,25.26568058396709,55.32987944792869,Physiotherapy
Zieda Aesthetics Clinic L.L.C,25.223987362466303,55.25709527928559,Dermatology
CSHP BEAUTE CONCEPT POLY CLINIC L.L.C,25.218935078025325,55.2531688381501,Plastic Surgery
Seven D Medical Center,25.145672134173843,55.1958554249437,Dermatology
Odyssey Nursery LLC (Branch),25.130315469736747,55.20379111397837,Nursing
Maris Aesthetic Clinic LLC,25.218057220073327,55.26131765297419,Plastic Surgery
BEIJING TONG REN TANG GULF MEDICAL CLINIC,25.15200569852648,55.20136196619375,Traditional Chinese Medicine (TCM)
Vikas Ear Piercing Services Co,25.125455819093737,55.209527285821,Nursing
recovery hub medical center,25.185291250259787,55.38118665111752,General Practice
KINESIS POLY CLINIC LLC,25.079351413473912,55.15740886383535,Physiotherapy
AL AMIN OPTICALS LLC - DUBAI BRANCH,25.114657723135423,55.20516335492038,Optometry
ORANGE SEEDS NURSERY BRANCH,25.119144455553144,55.376118030450655,Nursing
Gravity Dental Poly clinic L.L.C,25.29813735748203,55.38153760140331,General Dentistry
NOUR MARINA CLINIC L.L.C,25.09335213689972,55.14874509728596,General Practice
HIGH LIGHT DENTAL LABORATORY,25.109520214017493,55.18404659739426,Dental Lab - Dental Clinical Support
E LIVE BEAUTY SPOT Dermatology Clinic,25.173704081432,55.25525508397928,Obstetrics and Gynecology
CHUBBY CHEEKS NURSERY BRANCH,25.096441255980785,55.17663471338151,Nursing
GLANCE OPTICS LLC,25.046191741354217,55.24212543728459,Optometry
Morad Saleh Optics,25.111171463527818,55.202268473855405,Optometry
KBM Dental Laboratory LLC,25.271273061595437,55.38138654641645,Dental Lab - Dental Clinical Support
clinica cosmetic poly clinic l.l.c ,25.179431376133408,55.23395723011247,General Practice
Eye 2 Eye Optics Trading LLC Branch2,25.214163236701488,55.31576089903998,Optometry
VISION & STYLE OPTICALS (LLC) (BRANCH),25.047917179786644,55.129830474085296,Optometry
AL DAS MEDICAL CLINIC (BRANCH),25.11133289683752,55.14197519014891,Obstetrics and Gynecology
COSMO SECRETS MEDICAL CENTRE L.L.C (BRANCH),25.11887715324593,55.37743188391225,Dermatology
Center For Rehabilitation & Readiness Enhancement,25.222776145432388,55.32402553479309,Physiotherapy
YAH POLYCLINIC,25.003155344189143,55.28736884710871,General Dentistry
Eye 2 Eye Optics Trading LLC Branch,25.289541466291045,55.34722040220933,Optometry
royal smile dental clinic ,25.17747652178496,55.24567564319544,General Dentistry
Almoosa Diagnostic Center,25.235617533533727,55.27047549717866,Clinical Pathology
UCRYO WELLNESS,25.209107711696,55.277471745718366,Physiotherapy
HOBBS CLINIC LLC,25.173480599676235,55.221512935248505,Otolaryngology
Pulse Medical Centre,25.277088722237643,55.34823470754115,General Practice
EYE CARE OPTICS INTERNATIONAL LLC ,24.970008904924445,55.20803674709813,Optometry
ELEGANT HOOPOE POLY CLINIC L.L.C (BRANCH),25.194691076716943,55.23550163550301,Physiotherapy
AL RAMZ OPTIC CENTER L.L.C,25.2447123989942,55.30634201269579,Optometry
Neauvia Middle East Poly Clinic,25.07962986766359,55.13599257736867,Dermatology
SHANTHI WELLNESS AYURVEDIC MEDICAL CENTRE LLC,25.282070589644995,55.352468728647565,Ayurvedic Medicine
OPEN MINDS PSYCHIATRY COUNSELLING NEUROSCIENCE CENTRE-FZE,25.11082984912227,55.37484422991906,Psychiatry
Avance Dental Clinic LLC (Branch,25.040810415544584,55.116425128704975,General Dentistry
DERMADENT SKIN AND DENTAL CLINIC L.L.C,25.23609203423653,55.27632292000218,General Dentistry
PHY CLUB L.L.C,25.201704986408817,55.26195256975969,Physiotherapy
Floraison Dental Clinic LLC,25.166690477034987,55.2381403930734,General Dentistry
Lens and Frames Optics Trading LLC BR4,25.251602839391538,55.30502874797852,Optometry
CLINICA DENTALIA FOR GENERAL DENTAL CLINIC,25.124944077872893,55.20276102429357,General Dentistry
TRIPLE SEVEN MEDICAL CENTER L.L.C,25.214880219023577,55.25074981218588,General Practice
Al boom Marine LLC,25.197150400138383,55.28061644622558,Optometry
PORTOFINO AESTHETIC CLINIC - FZE,25.11163671895005,55.37557561691568,General Practice
BELLADERM MEDICAL CENTRE L.L.C,25.144629617340296,55.20779992753232,General Practice
MINHA DENTAL SURGERY CLINIC LLC,25.27160582803277,55.33269920374346,General Dentistry
Dr Krish Esthetik Studio For Dental Surgery Clinic,25.2216507929287,55.281081978287965,Orthodontics
Atlantis The Royal,25.137855489683737,55.12708591645477,General Practice
SAGE BEHAVIORAL HEALTH PSYCHIATRIC CLINIC L.L.C,25.19280849431,55.276803931021526,Child and Adolescent Psychiatry
LITTLE KIDS REHABILITATION CENTER,25.11141566802448,55.21738470716866,Speech Therapy
SMILE DESIGNERS DENTAL SURGERY CLINIC L.L.C,25.25625617335636,55.30543004493936,General Dentistry
MEDIVERSE POLY CLINIC L L C,25.25614955797889,55.33282466512923,General Dentistry
KYRA CARE FZ-LLC,25.233373743406556,55.317954102265695,Nursing
Dr. Sobehâ€™s Clinic FZ-LLC,25.23168489025761,55.32692671199009,Vascular Surgery
Sheba Poly Clinic,25.27391102259889,55.31442849376518,Ophthalmology
Atelier Clinic LLC,25.134757342771756,55.19716573884264,General Practice
Swiss International Scientific School FZ-LLC,25.208038313310578,55.333181582855424,General Practice
Monarch Health Center FZ-LLC,25.2301584360353,55.3239522410677,Child and Adolescent Psychiatry
Tunio Aesthetics FZ-LLC,25.23423305644837,55.31919994079254,Plastic Surgery
American Academy of Cosmetic Surgery Hospital Pharmacy (AACSH) FZ-LLC,25.23303595373894,55.320048378832006,Pharmacy
French Dental Clinic FZ-LLC,25.23429096236076,55.31839785303023,Orthodontics
Mitera Clinic FZ-LLC,25.234013537530405,55.318096393725824,Obstetrics and Gynecology
ASTER OPTICS 9 BR OF ASTER OPTICALS LLC,25.07808059553921,55.123262341882175,Optometry
AVANTI BY RIVOLI VISION BR OF EXCEL ENTERPRISES LLC,25.138468824786155,55.127479484124684,Optometry
Kids Neuro Clinic and Rehab Center FZ-LLC,25.23432413147296,55.31789358037352,General Practice
Myosmile Dental Clinic ,25.21237715543824,55.24865681976184,Periodontics
WHITELINE MEDICAL CENTER,25.24424341924533,55.45311988969471,General Dentistry
STYLO OPTICALS L L C,25.245045647930866,55.29865692713551,Optometry
Veneto Clinic FZ-LLC,25.23019505814233,55.32509419593594,General Dentistry
Revitalife Clinic FZ-LLC,25.234078159579298,55.3178587742665,General Practice
DR MISKIS DENTAL AESTHETIC CENTRE DMCC,25.063590129804712,55.13875803243392,Periodontics
Gifted Mind Child Skills Development Training,25.24305709689328,55.31353652374475,Speech Therapy
Towerclinic FZ-LLC,25.23098431332117,55.32586150155669,Orthodontics
MEDITERIA AESTHETICS AND WELLNESS  CLINIC L.L.C,25.184006859345217,55.26369617614185,Dermatology
SOLEA CLINIC L.L.C,25.246613763254203,55.275584511318336,Oral Maxillofacial Surgery
Aesthetica Clinic FZ-LLC,25.230235418664908,55.32402860011476,General Surgery
Healthy Victoria Cardiac Clinic,25.24088453090241,55.27220595622272,Cardiology
Camali Clinic Child and Adult Mental Health FZ-LLC (DMCC Branch),25.064266196321167,55.13828384546458,Child and Adolescent Psychiatry
American Heart Center FZ-LLC,25.23340429302321,55.317470015559536,Cardiology
THE CONTOUR SILHOUETTE CLINIC L.L.C,25.24613899426254,55.27541487997631,General Practice
DIVERSIFIED AND INTEGRATED SPORTS CLINIC (D.I.S.C) FZ-LLC (DMCC BRANCH),25.077904153762965,55.153036852489045,Chiropractor
ASPRIS WELLBEING CLINIC LLC,25.20144942153607,55.26427176581813,Psychiatry
New Smiles Dental Clinic,25.163578055348378,55.4140160443409,General Dentistry
B T L AESTHETIC MEDICAL CLINIC L.L.C,25.193762119929445,55.27349290683935,Dermatology
Emirates Integrated Medical Centre FZ-LLC,25.231979666301264,55.326619455642366,Traditional Chinese Medicine (TCM)
CITY RELIEF EXPRESS CLINIC L.L.C,25.275036321614404,55.31035102843792,General Practice
JEWEL CHILDREN WITH AUTISM REHABILITATION CENTER,25.172630254704664,55.24339912000043,Occupational Therapy
DANTY DENTAL LABORATORY L.L.C,25.187423530178226,55.26062519351731,Dental Lab - Dental Clinical Support
ELEGANT HOOPOE POLY CLINIC L.L.C,25.194558918850426,55.2353995173332,Physiotherapy
VOATII WELLNESS CLINIC,25.1633387514152,55.22292107603776,General Practice
Perfect Doctors Clinic L.L.C,25.16594512749929,55.22446272428238,Plastic Surgery
LEJOU PLUS MEDICAL CENTER L.L.C,25.21394011375821,55.258619101413416,Plastic Surgery
ECLA CLINIC L.L.C,25.14906558675367,55.21119553600923,General Practice
Alta Derma Clinic LLC,25.20015219520052,55.23962709712398,Dermatology
LIFE OPTICAL 1 BR OF LIFE OPTICAL LLC ,25.21231813858267,55.25761159249183,Optometry
SMILE BY DR NOURA CLINIC ,25.11872797822256,55.37686077870044,Implantology
HORTMAN CLINICS,25.230082669874182,55.28694973766896,General Practice
LAS VEGAS AESTHETIC MEDICAL  CENTER L L C,25.150897110045825,55.2212234834179,Dermatology
ISMILE DENTAL CLINIC L L C,25.2687268303314,55.30370576122711,General Dentistry
SKY MED AUDIOLOGY CENTER L.L.C,25.236675082729416,55.30592596163536,Audiology
Redwood Early Learning Center Of Excellence BR Kids First Group LLC.,25.094184279465203,55.21207722840384,Nursing
Mueller Medical Clinic FZ LLC ,25.2340153508815,55.31871593192362,Otolaryngology-Plastic Surgery (Head & Neck)
Gulf Optics,25.27116319325368,55.37311674874397,Optometry
Gems Winchester Shcool(Br Of Premier Shools International L.L.C),25.081148614004583,55.33148358489853,General Practice
Bella Dent,25.17874666026344,55.246566999755096,General Dentistry
Isee Eye Wear,25.107731698362716,55.19813877408466,Optometry
Al Mazaya Optics,25.24196364856816,55.29719540970852,Optometry
The One Plus Dental Clinic (Branch),25.0457475864534,55.23553718633241,General Dentistry
Marina Optics (L.L.C.) (Branch),25.22904230161682,55.38392952133386,Optometry
La Clinique Me JLT,25.071674543977203,55.14161739929741,General Dentistry
Eye 2 Eye Optics Trading,25.28758605478966,55.368557963314124,Optometry
Gems Wellington Academy Al Khail,25.122934639088463,55.25427311651632,General Practice
Nagem Dental Diet And Laser Center LLC,25.163705604683653,55.40609199441157,General Dentistry
Akeela Dental Clinic,25.045713152725952,55.1317462121896,General Dentistry
Vision And Style Optical LLC,25.230581564126965,55.2719210015171,Optometry
International Concept Education - School Clinic,25.15293047798767,55.29849640158096,General Practice
Sheikh Rashid Bin Saied Islamic Institute,25.103508762921653,55.41043065543687,Nursing
Canadian Kids Nursery,25.18178174122541,55.26226122643609,Nursing
American Hospital Pharmacy 1,25.235440576815517,55.31271843917376,Pharmacy
Mediclinic Ibn Battuta Clinic Llc Pharmacy,25.048207771107432,55.121754409433485,Pharmacy
Executive Opticsllc Jumerah,25.2629423906728,55.38509633783491,Optometry
Galadari Group - Company Clinic,25.26308001889272,55.42242807200312,Nursing
Bright White Dental Center L.L.C,25.21608525591674,55.26031605890504,General Dentistry
Lotus Dental Clinic L L C,25.287804817804403,55.36914965142996,General Dentistry
European Vascular Clinic Dmcc,25.069321836077258,55.13984337248281,Vascular Surgery
Head Start Speech Therapy Center,25.232268321081417,55.43291178951548,Speech Therapy
British Berries Nursery L.L.C,25.21254561910972,55.26871023878181,Nursing
Jebel Ali Village Nursery LLC,25.039927890490983,55.25402219379022,Nursing
Pandh Comfort Health Acupuncture Center,25.169154761277564,55.404263989943935,Acupuncture
3Dent Dental Laboratory,25.23643217429781,55.27663713630726,Dental Lab - Dental Clinical Support
Odyssey Nursery LLC Branch,25.21578562591377,55.2733624444939,Nursing
Noralign specialist medical center LLC,25.213507818677076,55.25882859166181,Physiotherapy
Advanced Hair Studio LLC,25.132266672463345,55.1990535204673,Dermatology
Alzahraa Dental And Orthodontic Clinic L L C,25.262294456615688,55.31959201427029,Orthodontics
PRIMUS MONECOLE EARLY CHILDHOOD CENTER L.L.C. BR.,25.14588746384956,55.21796191251892,Nursing
Jose Garizaldy Gomez Dental Clinic,25.265538865296516,55.32971372448122,General Dentistry
Atlantis Management Staff Accommodation,25.067975026801644,55.20981730574172,Nursing
Sunmarke School,25.04710861167376,55.19382531906064,Nursing
Kaya Skin Care Clinic-Branch,25.254987123848988,55.30335043204522,Dermatology
CRYSTAL VISION OPTICAL L.L.C,25.217599315560648,55.40701894714947,Optometry
Primecorp Medical Center L L C Jabal Ali Branch,25.009625754342423,55.10714334440893,General Practice
Pulse Center LLC,25.171603476652106,55.22047564392464,Speech Therapy
Hussam Dental Clinic Branch,25.24816398572898,55.30870270790732,General Dentistry
Golden Mile Nursery Br Of Babilou Investment LLC,25.10693706301659,55.14801785762408,Nursing
Bits Pilani Fz LLC,25.131259250962746,55.41983817623158,Nursing
Emirates Airline Clinic Branch 2,25.26919656030521,55.35078568257252,Occupational Medicine
Iranian Hospital L.L.C Pharmacy,25.23011122142109,55.26974319725977,Pharmacy
Toddlers International Nursery FZE,25.116458868942026,55.39160889198075,Nursing
British Orchard Nursery Branch,25.07233730629894,55.1300529687726,Nursing
Babilou Nursery Br Of Babilou Investment L L C,25.1436546072598,55.21019842480794,Nursing
GEMS ALBARSHA NATIONAL SCHOOL Br of FZEGEMS WELLINGTON ACADEMY DUBAI BRANCH,25.079893468455907,55.22949895160969,General Practice
Lens And Frames Optics Trading LLC,25.29550729476806,55.37033894164952,Optometry
Sultan Al Olama Medical Center Branch,25.025220089448,55.15286124013028,Dermatology
Pretty Smile Dental Clinic L.L.C,25.208526267189157,55.27237336986143,General Dentistry
Singhania Clinic And Therapy Centre Dmcc,25.07893384997514,55.15032178135392,Pediatrics
R U Active Sports Physiotherapy And Rehabilitation Centre L L C,25.03752879324248,55.22691414690448,Physiotherapy
Chubby Cheeks Early Learning Center - Branch,25.287851819441546,55.34806595549093,Nursing
Royati Nusery,25.202095424851905,55.3779459746513,Nursing
Blue Bird Nursery,25.195435557736555,55.38334783155558,Nursing
Al Jaber Optical Center Llc New Springs Village Br,25.06565244870732,55.19207574432268,Optometry
Art Village Nursery,25.197831122228127,55.240611406094615,Nursing
Kinderville Early Learning Centre Branch,25.248711693621,55.31209946239321,Nursing
BLOOM WORLD ACADEMY L.L.C,25.079113491834217,55.23414166649359,Nursing
Wise Mind Psychotherapy Center,25.186301877121497,55.273367265820646,Clinical Psychology
Dr Gad Dental Clinic L.L.C,25.18585701829295,55.25977349675651,Implantology
Msb Private School Branch,25.29047386723132,55.37568099801929,Nursing
Dunecrest American School,25.090813865926712,55.306463615424654,General Practice
Kings College Hospital London Pharmacy Br Of Kch Healthcare LLC,25.112690561158665,55.25460498523322,Pharmacy
Renaissance School,25.040005438131303,55.22691077275413,General Practice
Al Sana Dental Clinic,25.26472189466028,55.32293477100816,General Dentistry
Anubhar Medical Center,25.26509472170515,55.32164471229103,General Practice
Al Majd Medical Clinic,25.26589777462035,55.31961337741591,General Dentistry
Dr. Hashim Clinic,25.2757,55.3124,General Dentistry
Al Dhafra Medical Center,25.2735,55.3029,General Practice
Medinova Diagnostic Center(24 Hours),25.2598134833722,55.29423642019725,Clinical Pathology
Dr. Khalid Al Najjar Dental Clinic,25.22890416776368,55.32025501131262,General Dentistry
Ashokan Medical Clinic,25.27497720314033,55.30890099679752,Ophthalmology
Al Asriya Optical Est,25.24489415806521,55.30509191718813,Optometry
Kassla Optics,25.280125789618573,55.35345990476582,Optometry
Dr Rafih Khoury Dental Clinic,25.177437952244947,55.24595189841619,General Dentistry
Lutfi Optical Centre(Wafi Branch),25.229068929826248,55.31851576926859,Optometry
Al Jaber Optical Center L.L.C - City Center Branch,25.2517,55.3328,Optometry
Al Jaber Optical Center LLC,25.25016196750464,55.45394084750136,Optometry
Al Jaber Optical Center - Al Jumeirah Branch,25.21504181761816,55.251472053759,Optometry
Mnm Optics Llc Branch,25.2682,55.3758,Optometry
Oscar Optics,25.26428170824669,55.322607917226144,Optometry
Al Salam Pvt. School,25.2889,55.3695,General Practice
Dubai International Pvt. School,25.249047735729487,55.34196579834012,General Practice
Dubai Scholars Pvt. School,25.170577,55.150404,General Practice
Al Arqam Pvt. School,25.109091989874557,55.18888814144548,General Practice
The English College,25.16888543659988,55.23801522835249,General Practice
English Language Private School,25.241122004127664,55.31788794069208,General Practice
Lycee Francais International Georges Pompidou Om,25.23418970729916,55.31538746090566,Nursing
Gems Jumeira Primary School,25.1757078070616,55.23814180473455,General Practice
Islamic School For Traning and Education,25.252272805709417,55.4166989643835,General Practice
Mirdif American School,25.170577,55.150404,General Practice
Metro Clinic,25.2765,55.3121,General Dentistry
Vision Art Optical,25.25722449811096,55.291080429425904,Optometry
Glory Optics,25.26175017470984,55.292987991175885,Optometry
Emirates Optical Branch,25.2643,55.3229,Optometry
Luxe Dental Clinic,25.2426,55.2776,General Dentistry
American School Of Dubai,25.09850797474714,55.18283482332781,Pediatrics
Al Fida Medical Centre,25.2453,55.3022,Homeopathy
M N M Optics LLC,25.231719016476525,55.26379253221439,Optometry
Dr. Aseel Al Kubaisi Dental Clinic,25.2613824018963,55.32889956071904,General Dentistry
ALSALAMAH OPTICALS L.L.C,25.284558015187567,55.38919167234359,Optometry
Visibility Optic,25.170577,55.150404,Optometry
Park Hyatt Dubai - Company Clinic,25.24355683057635,55.333422532112415,Nursing
The Indian High School Clinic(Branch),25.24745517162181,55.340188355771474,General Practice
Gems Wellington International School,25.11153129863097,55.184320388413205,General Practice
Seashells Nursery,25.111167277343807,55.21005273289799,Nursing
Dr. Ibrahim Galadari Clinic(Br),25.13412136586861,55.207591317645466,Dermatology
Al Mawakeb School,25.2351544365104,55.358956343436446,General Practice
Sharjah and American International Privte School,25.182392000423786,55.40680653044742,General Practice
Hussam Dental Clinic,25.248026901438408,55.30853099591998,Implantology
GREENFIELD INTERNATIONAL SCHOOL,24.98282381951387,55.18345157613154,Nursing
Russian Intenational School,25.28235916730551,55.404687506624725,Nursing
Al Barakat International United Group,25.28210257628833,55.39814834471576,Optometry
Royal Model Medical Center,25.233,55.2702,General Practice
Visual Optics Limited,25.21396660232885,55.280748886708345,Optometry
Sultan Al Olama Medical Center L L C,25.2174,55.4181,Dermatology
Lycee Francais International Georges Pompidou,25.10463516587296,55.39607950601004,General Practice
Dar Al Marefa Private School,25.24924673777879,55.48151088707898,General Practice
Vista Health Care Clinic,25.233596638876268,55.30930050136722,Ophthalmology
Al Safa Early Learning Centre,25.19162013604575,55.244781587895794,Nursing
AL JABER OPTICAL CENTRE LLC BRANCH,25.11400918340984,55.13880218179518,Optometry
Vlcc International(L.C.Cbranch)Marina,25.068816843687337,55.133288283712965,Dermatology
Shams Al Assil Polyclinic,25.252661654575576,55.33399309534311,Orthodontics
Hattan Gardens Nursery Br Of Raffles International School L L C,25.076416642795905,55.16601531943167,Nursing
Naas Vision Optical Br Naas Optical Dubai Br,25.18814961412783,55.40847223666064,Optometry
The Lighthouse Arabia (Branch),25.23180329737125,55.32665151741032,Clinical Psychology
Jose Garizaldy Gomez Dental Clinic (Branch),25.260755052880373,55.32700693400396,General Dentistry
EYECLAP OPTICAL LLC,25.29133804223444,55.38306226380982,Optometry
ALZIKRA OPTICALS LLC (BRANCH),25.19026218641341,55.39232536212506,Optometry
M M C SKIN CLINIC LLC,25.287391897939155,55.36853019615816,Dermatology
KINDER CASTLE NURSERY LLC,25.0300331509345,55.2212771292208,Nursing
DR DAWLAT HUSSEIN DENTAL CLINIC,25.261447469388017,55.3199286815678,General Dentistry
Cherry Dental Laboratory ,25.235308036231658,55.27819225569747,Dental Lab - Dental Clinical Support
Mireye Alshams Opticals Trading LLC,25.16243301406825,55.40044101747358,Optometry
MARAYA OPTICS LLC,25.14737474734443,55.21040713419691,Optometry
SMS DESIGN DENTAL LAB,25.243955151996285,55.33967770945783,Dental Lab - Dental Clinical Support
Medstar  Pharmacy LLC,25.23524144201096,55.31769298022176,Pharmacy
Best Kidz Nursery Ltd,25.20924793030205,55.27889068004739,Nursing
Cosmesurge Plastic Surgery Hospital and Clinics LLC Pharmacy,25.150055573345306,55.19900456076041,Pharmacy
SHAMS AL SALAMA (Br of AL SALAMA OPTICALS LLC) Dubai branch,25.24649724832293,55.3066441230991,Optometry
FOOD AND WELLNESS DIETING AND WEIGHT CONTROL SERVICES,25.185088281092032,55.26477251308708,Clinical Dietetics and Nutrition
AL JABER OPTICALCENTRE  L.L.C BRANCH FESTIVAL PLAZA,25.029368892687543,55.106627271968414,Optometry
NOBLE Dental laboratory ,25.10953143120468,55.18390347425886,Dental Lab - Dental Clinical Support
FORTE CLINICAL LABORATORY,25.251356336414293,55.338644407322384,Clinical Pathology
PURE LAB NORTH LLC ,25.25159355406642,55.34480326523474,Clinical Pathology
DERMAZONE LASER AND COSMETIC CENTER L.L.C(BRANCH),25.23426227726282,55.43686352810308,Dermatology
SOUQ VISION OPTICALS (BR OF VISION & STYLE OPTICALS (L.L.C)),25.289253126679743,55.36635812865305,Optometry
MBST Physio and Joints Therapy Center FZ LLC,25.23196539475003,55.32708274070243,Physiotherapy
BLOSSOM NURSERY(BR OF BLOSSOM EDUCATION INVESTMENT L.L.C),25.105140455808552,55.38438129586596,Nursing
CLINICA SABAH SPECIALTY HOSPITAL PHARMACY L.L.C,25.24068912265861,55.29565771546127,Pharmacy
Al Habab General Clinic,25.05702289185013,55.58271001639198,General Practice
Dubai Medical University Hospital,25.247667685623465,55.41786651016266,Orthopedic Surgery
Arak Dental Clinic,25.276983696990904,55.3484414890924,Implantology
Ora Nursery Of The Future Fz-LLC,25.21805437231204,55.283226486952266,Nursing
NATIONAL CHARITY SCHOOL PRIMARY,25.274238268030533,55.34159004136182,Pediatrics
Thrive Wellbeing Centre by Dr Sarah Rasmi,25.07252065970857,55.14340021720907,Psychiatry
The Optique Hub for Spectacles and Contact lenses Trading LLC,25.26281417349843,55.32962352973905,Optometry
EYE MAX OPTICAL LLC- Dubai Branch ,25.262655704472607,55.32582529720113,Optometry
JUMAIRAH INTERNATIONAL NURSERY Branch,25.07481401946981,55.36723389430089,Nursing
Reverse Psychology for Psychological and Behavioral  Therapy LLC,25.16462682668992,55.22418388675028,Clinical Psychology
EYE CARE OPTICS INTERNATIONAL L.L.C (BRANCH),24.996600738359284,55.14101956128621,Optometry
UAE OPTICS LLC,25.25446265350828,55.33647485928787,Optometry
Bloom Therapy Speech Center,25.145190337784136,55.224121131968886,Speech Therapy
SERENITY ANANTARA CLINIC L.L.C,25.129925851044963,55.15321702566987,General Practice
Al Boom Marine LLC Branch,25.168898039593547,55.227844237567375,Optometry
HYGIENIC DENTAL CLINIC,25.110446253176583,55.20285996054445,General Dentistry
Y MED DENTAL LAB L L C,25.24370055720115,55.27614690194068,Dental Lab - Dental Clinical Support
VISION MASTERS LLC,25.243256867572647,55.27669254589471,Optometry
First Response Medical Center L.L.C,25.253829302074557,55.32893609647198,General Dentistry
MEDLIFE MEDICAL CENTER L.L.C,25.04595722852994,55.231727222009134,General Dentistry
sky marina dental clinic LLC,25.24211749436822,55.27607750152729,General Dentistry
Opal White Dental Clinic LLC,25.260791201329003,55.321125524353455,General Dentistry
SPRUCE SUNGLASSES TRADING LLC BRANCH,25.0443251432165,55.12011305625325,Optometry
Optihal FZ-LLC ,25.06966952927697,55.2417730859347,Optometry
SEVEN STAR DENTAL LABORATORY L L C,24.98024290895553,55.12761756782897,Dental Lab - Dental Clinical Support
proper esthtic  dental clinic,25.117449539546858,55.19660605567626,General Dentistry
VERSATILE DENTAL CLINIC L.L.C,25.118622537427346,55.2080022469432,General Dentistry
ALEX CARE CLINIC DMCC,25.079383808211496,55.14978166674743,General Practice
MODERN AESTHETICSS POLY CLINIC L.L.C,25.223858481825182,55.28237009545719,Dermatology
BLOSSOM HILLS NURSERY BR OF BLOSSOM EDUCATION INVESTMENT LLC,25.122929639206383,55.26070316327294,Nursing
G K OSTEOPATHY CLINIC L L C,25.046211887764542,55.2316305902208,Osteopathy
AL JABER OPTICAL CENTRE LLC BRANCH MEAISEM CITY CENTRE,25.03972979591457,55.19790260037038,Optometry
Ranches Nursery,25.030008279741768,55.27247236115417,Nursing
Qastarat Dawali Clinics FZ LLC,25.232142799966,55.3243224530365,Interventional Radiology
FUTURE HEALTH GCC  FZ  L.L.C ,25.233810522302573,55.31843079379704,Clinical Pathology
ASA CLINICAL LABORATORY,25.224723433460557,55.34024505842903,Clinical Pathology
Morfologie Slim Bods Slimming Therapy Center,25.217980056210315,55.27201804248651,Massage - Physiotherapy
Uro Diagnostic Clinic (UDC) FZ-LLC,25.232790400959985,55.32146863892096,Urology
Feto Maternal and Genetyx Center FZ-LLC,25.23017238305309,55.32385854012463,Obstetrics and Gynecology
NYLE SKIN MEDICAL CENTER L.L.C (BRANCH),25.286962693761023,55.35898548727025,General Practice
Silk Clinics FZ-LLC,25.232865900052968,55.32614320308275,General Practice
The Diabetes and Endocrine Center FZ-LLC,25.233811039466296,55.318151564353,Endocrinology
Clinic For Cosmetic Dentistry FZ-LLC,25.23336596085357,55.317780761693925,Prosthodontics
Almavita Medical Clinic FZ-LLC,25.232028601530736,55.32635708959533,Family Medicine
UCRYO FITNESS CENTER CLUB,25.133020161952984,55.19848668470214,Physiotherapy
JAMIE ROSE AESTHETIC CARE CENTER,25.264003912084704,55.324846227357256,Dermatology
Bauerfeind MEA Polyclinic FZ-LLC,25.23010367308257,55.32484849477073,Prosthetics and Orthotics
VISION EXPRESS NAKHEEL MALL,25.114018367141032,55.13876560982895,Optometry
EXCELLENCY PHYSIOTHERAPY CENTER L.L.C )BRANCH(,25.066572504071253,55.21568707865404,Physiotherapy
SERAH OPTICALS L LC BRANCH,25.26370218146603,55.28749697229746,Optometry
BROWZ CLINIC,25.132951318784333,55.19853558672722,Dermatology
Lueur Aesthetic Clinic LLC,25.093661233814263,55.18573284905846,General Practice
LAB247 DIAGNOSTIC,25.26489681406142,55.32615377568008,Clinical Pathology
EMIRATES BRITISH NURSERY BR,25.086907671637327,55.36072282623268,Nursing
EYE LIFE OPTICS L L C,25.289412064230007,55.36851282482122,Optometry
The Reformery Aesthetic Clinic,25.11182272979753,55.24562107056798,General Practice
Milestones Autism Rehabilitation Center,25.134263336688445,55.198378591915095,Speech Therapy
KOTOBUKI CLINIC,25.221841134636847,55.28118967594616,General Practice
LAITH MEDICAL CENTER L.L.C,25.26164851332781,55.320037343576566,General Dentistry
Little Kingdom Early Childhood Center ,25.24446152371141,55.29685186809094,Nursing
BALANCE WELLNESS CENTER L L C,25.16932954412726,55.24159868746778,Ayurvedic Medicine
Al Zahra Pvt. Hospital,25.106255903296795,55.18102064077618,Anesthesia
Dr Imran Tahir Aestheticare Centre,25.15104237359711,55.21319607815385,Plastic Surgery
Dusit Thani Dubai - Company Clinic,25.20625585622507,55.27299175536495,Nursing
Health Avenue polyclinics L LC ,25.08567603303399,55.14405179198628,General Practice
Life Medical Center Dmcc,25.07922451845222,55.149713254126766,General Practice
Al Tadawi Medical Center,25.2738011721757,55.35440035169511,Internal Medicine
Aster Medical Centre Business Bay Br Of Dm Health,25.1918850017667,55.26572028334989,Obstetrics and Gynecology
OAKS IBN BATTUTA GATE HOTEL DUBAI,25.041673874966826,55.11547449129036,Nursing
Lotus Medical Center L.L.C,25.152402920810097,55.24235016330144,General Practice
Noor Alshefa Clinic,25.00575662592892,55.10371615184015,General Dentistry
Kims Medical Centre,25.271460167811867,55.33248499409455,Obstetrics and Gynecology
Jupiter Specialty Medical Center,25.2448472287741,55.29791755606914,Pediatrics
The Dental House,25.265524309427057,55.38284837585418,Orthodontics
Medcare Medical Center Jbr - Br- Medcare Hospital,25.080230081717183,55.13864382010494,Family Medicine
Gorgeous Smile Dental Center LLC,25.091479564737632,55.15858398294222,Orthodontics
Villanova Cosmetic And Surgical Center,25.23941831584621,55.27094374499352,General Dentistry
Icare Oasis Branch Of Excel Healthcare,25.169600354113,55.24170931126865,Obstetrics and Gynecology
Dental Club Clinic Owned By Hessa Abdulla One Person Company LLC,25.25053226717158,55.45416087272285,General Dentistry
Park Dental Center,25.176748217931017,55.24475756524312,Endodontics
MEDLITE MEDICAL CENTER,25.16846900111392,55.40661560566514,General Dentistry
Houston Clinic,25.116543287687392,55.20618468218111,General Practice
Armada Medical Centre,25.074662868888183,55.144723188183406,Internal Medicine
American Center For Psychiatry And Neurology,25.183762566638627,55.22635375448563,Psychiatry
Boston Diabetes And Endocrine Center,25.237256493442917,55.26779584591768,"Internal Medicine (Endocrinology, Diabetes And Metabolism)"
Medcare Orthopaedics And Spine Hospital,25.178857107179063,55.247343654784686,Anesthesia
N L V Medical Center LLC,25.19647622359412,55.24641354490386,General Dentistry
La Perla Dental Clinic DMCC,25.07767251150917,55.15134947468775,General Dentistry
Icare Garden Branch Of Excel Healthcare,25.05026711761944,55.13283388383666,Internal Medicine
Dr Sai Ganesh Medical Centre,25.261079662296183,55.332725696434,General Dentistry
Unicare Medical Centre LLC Branch,25.23946050248732,55.28044663992068,General Dentistry
Sultan Alolama Medical Center Branch,25.236558698423572,55.42221094676536,Dermatology
Lucia Aesthetic And Dermatology Center,25.20287180185422,55.24157867772061,Dermatology
Dr Mohamed Rafi Dental Clinic,25.23579128770617,55.2778275766568,General Dentistry
The International School Of Choueifat Branch,24.98685870321932,55.17204844397974,General Practice
Montreal International Clinics,25.20012618863468,55.23958867599654,General Dentistry
Sansaya Cosmetic Surgery And Dentistry Clinic LLC,25.16117162250482,55.22129745513777,General Dentistry
Noor Al Shefa Clinic Branch,25.175362802134057,55.38678291258904,General Dentistry
American Outpatient Cinics,25.21351762645809,55.38001277970208,General Practice
Al Massa Polyclinic LLC,25.152562287100597,55.2140777692283,General Dentistry
Advanced Specialist Medical Center,25.233515892113008,55.43700090539853,Oral and Maxillofacial Surgery
Mediclinic Ibn Battuta Clinic LLC,25.04779407914257,55.12180471239659,Obstetrics and Gynecology
Medicure Poly Clinic Branch,25.11636777913497,55.390242085802136,General Practice
Perfect Smile Orthodontic And Cosmetic Dental Center,25.18674812606683,55.26670437653412,General Dentistry
Syed Sadiq General Practitioner Clinic L L C,25.15205180740464,55.24206608539003,General Dentistry
Moon Light Dental Center LLC,25.21855782241899,55.26166538030349,General Dentistry
Dr Michaels Childrens Dental Center LLC,25.156886893007325,55.21748316445174,Endodontics
Aster Jubilee Medical Complex Br Of D M Healthcare LLC,25.260058842039744,55.29443695116809,Pediatrics
Toddler Town British Nursery,25.0736744948502,55.131044859472176,Nursing
Maral Dental Center,25.26383416136506,55.3224860753233,General Dentistry
Koster Clinic,25.1354974648218,55.19698041496351,Obstetrics and Gynecology
Al Azhar Clinic - Branch 2,24.987212356579125,55.196651803847935,General Practice
Dulsco Medical Clinic,25.125902882923448,55.233519948488194,General Practice
Al Soor Medical Clinic L L C,25.27164152214375,55.30040984244886,General Practice
NASSER MEDICAL CONSULTANT CENTRE L.L.C,25.266646566708,55.33008751484879,Internal Medicine
Burjeel Hospital For Advanced Surgery,25.146380240143124,55.22364319518712,Anesthesia
Xie He Medical Center,25.171458169290467,55.41427991136751,General Dentistry
Access Clinic Sonapur Br Of Dm Healthcare LLC,25.260404879250807,55.42310991329646,General Practice
Smile Design Clinic,25.21605589557628,55.26002511834627,General Dentistry
Chubby Cheeks Nursery,25.04683282491187,55.12937339317175,Nursing
Clover Medical Center LLC,25.10120307563348,55.17867132095171,General Dentistry
Advanced Care Medical Center Branch,24.97591384987153,55.20146713157222,General Practice
Hellenic Dental Clinic,25.217846604345187,55.26110145744924,General Dentistry
Al Mashaher Medical Centre,25.26135790164141,55.42398783383464,General Dentistry
Khalidha Medical Centre LLC,25.15107472895193,55.24352294398029,General Practice
Trucare Clinics L L C,25.11741403303997,55.204842764626505,Dermatology
Dr Ismail Polyclinic Branch,25.00247998588398,55.108490202846696,General Practice
BELLA ROMA SPECIALTY HOSPITAL L.L.C,25.15783075921019,55.21873302955456,Plastic Surgery
United Medical Center,25.22942057205131,55.31890371129842,Internal Medicine
Mediclinic Deira Clinic Br Of Mediclinic Clinics Investment LLC,25.25060360247657,55.33514236106033,Orthopedic Surgery
Ocp Medical Center,25.226162837772883,55.28412617884121,Anesthesia
Oud Al Muteena Medical Center,25.261373125737176,55.44130845351073,Family Medicine
Sky Clinic Dental Center Dmcc,25.078065125295037,55.15371412043939,Oral and Maxillofacial Surgery
Karama Medical Center Alquoz Mall Br,25.122193739694627,55.22321818964065,General Practice
Klinika Dental Clinic,25.116336747054262,55.20622004692442,Orthodontics
Blossom Nursery 4,25.192090074661987,55.27930109736644,Nursing
Nmc Specialty Hospital Pharmacy,25.290095084405507,55.36947579261239,Pharmacy
Royal Dental Care Co LLC,25.2135083335043,55.25855084578637,General Dentistry
Kind Care Medical Center,25.149066582263536,55.198281688938366,Plastic Surgery
Access Clinic International City Br Of Dh Healthca,25.162480291147823,55.41871643125164,General Practice
Willow Childrens Nursery,25.153162731382285,55.213157391646696,Nursing
Dr Kamil Al Rustom Skin And Laser Centre,25.22700638035733,55.2667091850225,Dermatology
Medcare Paediatric Specialty Clinic Br Of Medcare LLC,25.176966095567543,55.245483671768646,Pediatrics
Rays Of Light For Early Learning,25.144095494893563,55.20238233059784,Nursing
Aster Gp Clinic Burdubai Br Of Dm Healthcare LLC,25.26240964626951,55.28731383250037,General Practice
Transform Specialist Medical Centre LLC,25.213860616183,55.2587805278659,Orthopedic (Sports Medicine)
Gsm Medical Center LLC,25.234342093147056,55.278062345916574,General Practice
Medcare Physiotherapy And Rehabilitation Centre,25.177268888824784,55.245227152533126,Physiotherapy
Venocare Vascular Surgery Clinic,25.166402959036112,55.2376658111681,Vascular Surgery
ASTER MEDICAL CENTER INTERNATIONAL CITY BR OF D M HEALTHCARE  L L C ,25.168267180866223,55.40353462894046,Pediatrics
Medi Family Polyclinic FZE,25.117581272521164,55.39081930188033,Family Medicine
Royal Aesthetica Poly Clinic LLC,25.224339979371592,55.25782068095404,General Practice
Pearl Dental Clinic,25.184152049787517,55.26023945197932,General Dentistry
Prime Hospital L.L.C,25.24977059596729,55.34572880373341,Pulmonary Disease
Blossom Nursery 2,25.03379362369479,55.28988656675382,Nursing
Excellency Physiotherapy Center,25.18851673182914,55.26676971778696,Physiotherapy
DR OSSAMA BAZI DENTAL CLINIC,25.277309293510505,55.34823052523698,General Dentistry
Aster Medical Centre Silicon Oasis Br Of Dm Health,25.116564306243813,55.3909713084653,Obstetrics and Gynecology
Aster Medical Centre Al Qusais Br Of Dm Healthcare,25.269024912291457,55.3768758383164,Dermatology
Luzan Dental Center LLC,25.19416013473809,55.26041980321286,General Dentistry
Jumairah International Nursery Br Southridge,25.18726908604166,55.27834153739296,Nursing
COOPER HEALTH CLINIC L L C,25.147202972532316,55.21032028322009,Pediatrics
Grand Infinity Medical Cnter LLC,25.28681493398432,55.40016156980727,General Dentistry
N M C ROYAL HOSPITAL LTD - DUBAI BRANCH,25.003194331938538,55.15407988429647,General Surgery
Aster Medical Centre Muhaisnah Br Of Dm Healthcare,25.279577518836856,55.40577630517576,Pediatrics
Tadawi Health Care L.L.C (Branch) ,25.2352960499701,55.29159485544813,Internal Medicine
All Smiles Multispeciality Dental Spa,25.099330690763743,55.20487160579621,Prosthodontics
Easy Dental Branch 2,25.229910957336703,55.27328666875799,General Dentistry
Al Badiya Dental Clinic,25.21508690437788,55.37502343771549,General Dentistry
SHIRAZ MEDICAL CENTER LLC,25.21369178322664,55.25917160515159,Urology
Mcgill Medical And Dental Center L L C,25.099821490148752,55.17689025094899,General Dentistry
Axis Dental Clinic LLC,25.236206326140124,55.27741746038958,General Dentistry
Premium Cosmetic Laser Center,25.21366967144661,55.25860654565022,Dermatology
Empire Dental Clinic LLC,25.19230822880586,55.28487727529687,General Dentistry
Access Clinic Alqouz Br Of Dm Healthcare LLC,25.157813192368632,55.24862257768888,General Practice
Cross Roads Dental Clinic LLC,25.25423303705975,55.328831737973,Implantology
NOVOMED WELLNESS CENTER (BR OF INTELLIGENT HEALTH INVESTMENT L.L.C),25.13519732026997,55.1973204296604,Psychiatry
Nord Anglia International School L L C,25.061986413799733,55.22926356648582,Nursing
Gardens Speciality Clinic Br Of Dm Healthcare LLC,25.047605247260115,55.13007396837243,Pediatrics
Alsham Dental Clinc,25.244208118489407,55.340006170780406,Endodontics
Al Barsha Alnoor Polyclinic L L C,25.11646137809621,55.20623550477822,General Practice
Access Clinic Persia Cluster Br Of Dm Healthcare L,25.15946973126925,55.40838807613087,General Practice
Medi Centres Polyclinic Jumeirah Branch,25.042804299327013,55.1600774001287,Family Medicine
Aster Medical Centre Aswaaq Mall Br Of Dm Healthca,25.089962185116875,55.22751191580426,General Practice
Ph Diagnostics L.L.C,25.25648286102829,55.30131893237615,Radiology
Gems Metropole School,25.041390563047123,55.24261900373997,General Practice
Al Maher Medical Center,25.23313833868618,55.269253375060174,Endodontics
Access Clinic Sonapur 2 Br Of Dm Healthcare LLC,25.26618214792131,55.43396431026555,General Practice
Vcare Polyclinic LLC,25.29461995187897,55.36155634103797,Cardiology
Dr Moopen Polyclinic Br Of Dm Healthcare LLC,25.273485052898405,55.32165906925835,Gastroenterology
Medeor 24X7 Hospital LLC,25.257724401556708,55.30675785427814,Neurosurgery
Apex Medical Clinics LLC,25.04654791208454,55.235430467925255,General Dentistry
F M C Medical Center L L C,25.13797604861086,55.203336347450495,General Dentistry
Karama Medical Centre Br. Muhaisnah,25.25799524972705,55.42418573056853,General Practice
Royal Crown Dental Clinic,25.248582327936507,55.3376700420036,General Dentistry
Aster Hospital Br Of Aster Dm Healthcare Fzc Dubai,25.252182357968064,55.288783880002136,Pediatrics
Medcare Medical Centre Jumeirah Br Of Medcare Hosp,25.166029451157257,55.21313564953677,Family Medicine
Qamar Al Madina Medical Center L.L.C,25.15256358404586,55.24228601423861,General Practice
Prime Medical Center Rta Branch,25.23433419218402,55.35580209139472,General Practice
Medcare Medical Center Discovery Gardens Br Of Medcare Hospital LLC,25.034936518683917,55.14719104557648,Family Medicine
Mediclinic Welcare Wellness Centre (BR of Mediclinic Welcare Hospital L.L.C),25.24723916100989,55.34117883694815,Prosthodontics
Medcare Specialty Centre Br Of Medcare Hospital LLC,25.22147010082865,55.43446009983815,Dermatology
Iranian Hospital L.L.C,25.23072115710189,55.26888450383362,Infectious Diseases
American Hospital Clinics Dubai Media City BR of American Hospital Dubai LLC,25.101287903941877,55.168650252963104,Dermatology
Access Clinic Dip 2 Br Of Dm Healthcare LLC,24.978722725086826,55.20192665984407,General Practice
Medcare Medical Centre Marina Br Of Medcare Hospital LLC,25.07920754915378,55.14348941282987,General Practice
Rona Rabah Dental Clinic,25.18505542911741,55.26452232433357,General Dentistry
Dr.Abdulla S Clinic,25.285522934000912,55.406829910583525,Internal Medicine
Silesia Dental Clinic LLC,25.25396942509556,55.32869302873254,General Dentistry
Aster Medical Centre Abu Hail Br Of Dm Healthcare,25.28062942896391,55.35150390407061,General Practice
Islamabad Medical Clinic LLC,25.27711422429533,55.32870481107055,General Practice
Medstar Healthcare LLC,25.2353251378915,55.318038258403,General Surgery
Aster Specialist Centre For Orthopedics And Physiotherpy Br Of D M Healthcare,25.27703537142396,55.38567507644685,Orthopedic Surgery
Mediclinic Meaisem,25.03988725484457,55.19697798774277,Family Medicine
Aster Medical Centre Al Barsha Br Of Dm Healthcare LLC,25.112701512288737,55.20089974662478,Internal Medicine
Dentzz Dental - Dmcc,25.07841665578665,55.15358328609886,General Dentistry
Apple International Poly Clinic,25.15499151502365,55.41099610999866,General Practice
Karama Medical Centre Br. Al Khail Gate,25.13903709962001,55.2528035664641,General Practice
Noor Al Shefa Clinic Branch,25.15977975449074,55.25049316701968,General Practice
DENTIST DIRECT DS CLINIC L.L.C,25.09723606057624,55.18033400154079,General Dentistry
Al Manara Specialized Medical Center LLC,25.160414683276013,55.22213038558373,Obstetrics and Gynecology
Imed Dental Clinic,25.109656084603323,55.18410705485696,Implantology
ST MARY HIGH SCHOOL MUHAISNAH L.L.C,25.280335800044583,55.408018250681096,General Practice
Clinicare Samari Br Of Imara Health Care LLC,25.17687242480477,55.376397986016585,General Practice
Dermamed Clinic,25.228600194382107,55.31962922350642,Dermatology
Aster Medical Centre Al Qouz Br Of Dm Healthcare L L C,25.14929618013517,55.2457094320106,General Practice
Horizon Dental Lab,25.23910410798833,55.27133574494024,Dental Lab - Dental Clinical Support
Munich Dental Clinic Branch,25.12855247131095,55.20763741811291,General Dentistry
Swedish Dental Clinic,25.06925765716024,55.12967298326019,Orthodontics
Precision Dental Clinic L L C,25.20894784296521,55.272488078491776,Orthodontics
Chubby Cheeks Nursery Branch,24.99761888759676,55.17246611421478,Nursing
Small World Nursery L.L.C,25.23184953725453,55.28817585674607,Nursing
We Care Medical Center LLC,25.251228883481883,55.30920761220013,Internal Medicine
Blossom Nursery 5,25.02764932345804,55.26670326409138,Nursing
New Sanaiya Clinic Branch,24.979580769919,55.15933391495023,General Dentistry
Al Shifa Al Khaleeji Medical Centre Branch LLC,24.99774936076859,55.17259370967602,General Practice
Same Day Dental Clinic LLC,25.15306677205968,55.20207786937728,Oral and Maxillofacial Surgery
Clinicare Br Of Imara Health Care LLC,25.274886567063447,55.31146223607044,General Practice
Best Dentist LLC,25.26570016874821,55.32068045067357,General Dentistry
Emirates Hospitals And Clinics Llc Branch,25.085968214120705,55.142379993376,Pediatrics
Sheikh Manaa Bin Hasher Al Maktoum Polyclinic LLC,25.213807742134865,55.25852898140928,Cardiology
Health Baypolyclinic Br,25.13691127077035,55.20228395608328,Internal Medicine
NEW MEDICAL CENTER LTD - DUBAI BRANCH,25.27660866576992,55.34627994069837,Internal Medicine
Zia Medical Centre L.L.C,25.165481053650595,55.21230975903042,Family Medicine
Anaya Medical Center L L C,25.15397958140292,55.24562106622832,General Practice
Medcare Women And Child Hospital Br Of Medcare Hospital,25.16079871985818,55.23043086696229,Internal Medicine
Harley International Medical Clinic Branch,25.247888498157664,55.28593387627971,Internal Medicine
Aster Specialist Medical Centre International City Br Of Dm Healthcare LLC,25.158804928957405,55.40441767773091,Obstetrics and Gynecology
ROYAL EUROPEAN SPECIALIST POLYCLINIC ACADMY L.L.CC,25.146627277372744,55.20978341356056,General Dentistry
Ladybird Early Learning Centre,25.05503884501144,55.21214479106716,Nursing
Dr Michaels Orthodontic Center LLC,25.157145366900007,55.21762442156849,Orthodontics
Tadawi Medical Caentre Emirates 1,25.25097366900304,55.348380411122825,General Practice
Icare Al Reffa Br Of Excel Healthcare LLC,25.252152895578416,55.28797284705125,General Practice
Care One Poly Clinic LLC,24.971093262132584,55.17202028257536,General Practice
Life Works Holistic Counselling Centre,25.142007551365168,55.2057764918277,Psychiatry
Vida Clinics LLC,25.25653227234749,55.29350507078254,Radiology
Monroe Medical Center LLC,25.200138419694145,55.26690303410498,General Dentistry
Al Habtoor Theatre L L C,25.18462728720286,55.25453209649218,Physiotherapy
Medcare Medical Centre Al Khawaneej Br Of Medcare Hospital LLC,25.248662713007302,55.4800730757932,Pediatrics
Dr Nader Saab Plastic Surgery Clinic LLC,25.20863354343191,55.245350100550574,Plastic Surgery
Al Zafaran Medical Center LLC,25.27343592008333,55.33033898791787,General Dentistry
Grace And Light Cosmetic Clinic LLC,25.138005330250728,55.20350421783999,General Practice
Okare Polyclinic,25.22427053658778,55.42474513878619,Physiotherapy
Medcare Medical Centre Motorcity Br Of Medcare Hos,25.04531670938188,55.2380553706115,Internal Medicine
Next Generation School L L C,25.09889672774497,55.18935488105846,Nursing
Fifa Sport Medical Center Of Excellence Dubai LLC,25.22281811922061,55.3275637044308,Physical Medicine and Rehabilitation
Cocoona Aesthetic Transformation Centre Llc Branch,25.232599633769347,55.43311312799848,Plastic Surgery
Avance Dental Clinic L.L.C,25.25404094824269,55.328722864662495,Orthodontics
Angel Wings Medical Centre L.L.C,25.10868994356989,55.18485001238872,General Practice
Medcare Medical Center Al FurjanWest Br of Medcare Hospital LLC,25.022143804268303,55.12983881876824,Pediatrics
Zahrat Al Shefa Medical Centre LLC,25.25939286881466,55.42393209278679,General Practice
Little Amigos Early Learning Center,25.17744006781573,55.37658939708087,Nursing
D C V I P Dental Clinic LLC,25.186158139416616,55.2734570195775,General Dentistry
Nagem Dental Diet And Laser Center Llc Branch,25.113616724867747,55.19391504443925,General Dentistry
Black Diamond Dental Clinic,25.097555312861022,55.15659843097347,Implantology
Medi Centres Polyclinic Llc Branch,25.024705860177672,55.15279221804529,Pediatrics
Emirates Hospitals Clinics Business Bay LLC,25.188900272777325,55.26559627521463,General Practice
Ear Care Medical Center LLC,25.23581654207955,55.27086529739616,Audio Vestibular Medicine
The Palace Nursery,25.159146002506425,55.223368951772805,Nursing
Prestige International Polyclinic LLC,25.11735037554962,55.20525061032736,Plastic Surgery
Medilife Polyclinic LLC,25.151183358901083,55.2502822374725,General Practice
Oval Dental Clinic LLC,25.18781962237571,55.2714365725517,General Dentistry
Novomed Specialized Surgical Hospital LLC,25.13516292472208,55.19657027780004,Anesthesia
Kings College Hospital London Medical Centre Br Of Kch Healthcare LLC,25.16240522205913,55.210427613855664,Pediatrics
Abeer Alnoor Polyclinic L L C Branch,25.263029253133816,55.43040300724602,General Practice
Novomed Centers LLC,25.07509569063641,55.13959807213208,Family Medicine
Emirates Hospitals And Clinics L L C,25.111683049254456,55.14153043341238,Family Medicine
Bizrahmed Centers L.L.C ,25.124929226026985,55.20204417412653,General Practice
Abris Medical Centre LLC,25.262060249065907,55.29649687042972,General Practice
Gaga Medical And Aesthetic Center LLC,25.18036764730586,55.22457988563816,General Dentistry
MEDZE CLINIC L.L.C,25.27136294733208,55.32983146884057,General Practice
Emirates Hospital L.L.C,25.19695853751824,55.23709598797486,Obstetrics and Gynecology
Promise Aesthetic Clinic L L C,25.217877742184143,55.41831306545316,Dermatology
North London Collegiate School Middle East L.L.C -,25.17863383264101,55.30716553232757,Family Medicine
Babilou Br Of Babilou Investment L L C,25.187250491466635,55.29711389596977,Nursing
Kings Medical Center LLC,25.265031344173245,55.32102460500784,General Dentistry
Dr Ismail Day Surgical Centre,25.24052317256596,55.29994145040894,Gastroenterology
Al Tadawi Medical Center Branch Dip,24.978912030369955,55.16784458426309,General Practice
AIG WELLNESS CLINICS L.L.C,25.1894101593878,55.38337022071274,Dermatology
High Hopes Paediatric Therapy Center L L C,25.17637910789361,55.24290896957297,Speech Therapy
EMIRATES  SPECIALITY HOSPITAL FZ-LLC,25.2316572709716,55.31788282469937,Neonatology
Al Lubnani Medical Center Llc Dubai Branch,25.11667867323298,55.2058956417222,General Dentistry
Bourgeois Dental Clinic LLC,25.12738861210256,55.2055688603975,General Dentistry
Abeer Al Noor Polyclinic Llc Branch,25.276274615867727,55.31020026548461,General Practice
Live Care Clinic L.L.C,25.006982221869947,55.11094002776167,General Dentistry
Prime Medical Center Motor City Br Of Prime Medical Center L Lc,25.047052508368253,55.24282738833557,Otolaryngology
Yasmin Shifa Dental Clinic LLC,25.28124839086646,55.38814139758095,General Dentistry
Advanced Care Medical Center Branch,25.26504394294897,55.43316281084292,General Practice
GREEN CITY MEDICAL CENTER L.L.C,25.158064356097167,55.25105131795188,General Practice
911solomed polyclinic llc,25.085834697575383,55.140871867345865,General Practice
Green Life Medical Clinic L L C,25.21868668033296,55.25349447508832,General Dentistry
Vila Fortuny Dental Laboratory,25.17629991449189,55.23213447234434,Dental Lab - Dental Clinical Support
Med One Medical Center LLC,25.26912775824337,55.38028559652658,General Practice
Adam Vital Hospital L.L.C,25.251039150194497,55.34346708101718,Internal Medicine
Dewa Academy,25.243834052624365,55.280260377424206,Family Medicine
Haton Medical Centre L.L.C,25.185908828885463,55.27435116475008,General Dentistry
Dubai London Clinic And Speciality Hospital Branch,25.09130754391233,55.36949365377615,General Practice
Symbiosis Medical Centre Fzco,25.127434711563797,55.39612201171303,General Surgery
Anaya Medical Center Llc Branch,24.97932274724261,55.13615483742604,General Practice
Multi Care Medical Centre LLC,25.14033437612109,55.25244594042564,General Practice
Medcare Medical Centre Al Barsha Br Of Medcare Hos,25.11083225102996,55.195275139650974,Internal Medicine
"Kings College Hospital London, Medical Centre Br Of Kch Health Care LLC",25.087833856255827,55.14877667655716,Family Medicine
Aster Hospital Br Of Aster Dm Healthcare FZC,25.277422336745,55.39523555412074,Anesthesia
Azhar Clinic 3 Br Of Al Azhar Clinic LLC,25.174336002711904,55.39265588070461,General Practice
Sultan Al Olama Medical Center Barsha,25.098906361998,55.203802869106816,General Practice
Mediclinic Parkview Hospital LLC,25.06588735139118,55.24854976584592,Emergency Medicine
Dr Sara Medical Center L.L.C,25.26428612738409,55.33064614900182,General Dentistry
CLINICA MARIA MEDICAL CENTER L.L.C,25.242200381835143,55.29701058994417,General Dentistry
Prime Medical Center Barsha Heights Branch L L C,25.097553950139044,55.16878573575393,Internal Medicine
Re Leaf Medical Centre L.L.C,24.976267162733688,55.20108520058468,General Practice
Kings College Hospital London Br Of Kch Healthcare LLC,25.112822554588984,55.25487785990061,Emergency Medicine
Laven Clinic Group Dmcc,25.069067716744733,55.14313780655599,General Surgery
Zulekha Hospital LLC,25.29166566812736,55.38395970321537,General Practice
Emirates Hospitals And Clinics L.L.C. Branch,25.22595956054941,55.283780084964384,Neurology
Creative Smile Dental Surgery Clinic LLC,25.264415420641,55.32059306600711,General Dentistry
American Aesthetic Medical Center LLC,25.165481306661736,55.23498781119358,Implantology
Sahara Dental Clinic And Orthodontic Centre LLC,25.16469226221104,55.2234741021462,Orthodontics
Valiant Healthcare L.Lc,25.201055424947587,55.262532192590186,General Surgery
COSMESURGE PLASTIC SURGERY HOSPITAL AND CLINICS L.L.C,25.14998276714206,55.19910269830332,Anesthesia
NATURALIA WELLNESS AND REHABILITATION MEDICAL CENTRE-FZCO,25.11631638748965,55.3900162178667,Ayurvedic Medicine
RALS HEALTHCARE )BR OF ABD ULWAHED BIN SHABIB INVESTMENT GROUP L.L.C(,24.98476185982098,55.10712360960403,General Practice
Medical Specialists Center,25.2413,55.2742,Urology
The General Medical Centre1 Br Of G M C Healthcare LLC,25.231157278452493,55.26330750028351,General Practice
The Dental Studio,25.171836249578277,55.22490721406681,General Dentistry
Dr. Abdul Rahman Shihabi Clinic,25.2564,55.2966,Internal Medicine
Dr. Abdul Latif Clinic,25.26973032181529,55.30245381879725,General Dentistry
Dr. Koya Clinic,25.2719,55.3063,General Practice
Dr. Ismail Polyclinic Karama,25.23983254136732,55.30194743830769,Endodontics
The Modern Medical Consultation Center,25.2615,55.3186,Otolaryngology
Amiruddin Clinic,25.2752,55.332,General Practice
Dr. Azzam Al Abdul Razzak Clinic,25.2375,55.2761,Neurosurgery
Dubai London Clinic And Speciality Hospital,25.15294137878823,55.20167126325443,General Practice
Al Munira Clinic,25.2597,55.2915,General Practice
Medicure Poly Clinic,25.24980492788941,55.28999332207387,General Practice
FAMILY CLINIC Br of OXFORD MEDICALCENTER LLC Dubai Branch,25.2315,55.2705,General Practice
DR ABU HALID DENTAL CLINIC LLC,25.26495730387502,55.31624086529968,General Dentistry
Al Majid Clinic LLC,25.27610529218516,55.31295240624212,General Practice
DR JOSEPH POLYCLINIC (BR OF AMBER CLINICS L.L.C),25.2447,55.2998,Dermatology
My Skin Clinic L L C ,25.198814474662136,55.26439356285629,General Practice
Panorama Medical Centre,25.26410209483026,55.31631231313135,General Dentistry
Al Rashidiyah Private Poly Clinic,25.2632,55.2897,Internal Medicine
Naif Medical Center,25.275,55.3089,General Dentistry
Oxford Medical Center,25.25711264732762,55.28674199213087,General Practice
DR MAYSON ALKAISI CLINIC L.L.C,25.17866408745939,55.234275000367006,Obstetrics And Gynecology
Sirajuddin Medical Centre,25.2373,55.303,Orthodontics
Dr Haghi Speciality Clinic,25.23805863248191,55.27270929618869,Ophthalmology
Al Bayan Medical Center,25.27500006561093,55.30933022693775,Endodontics
Al Borj Medical Center,25.19998669725745,55.2654732395465,Pediatric Surgery
Al Diyafa Modern Medical Center,25.234776124747665,55.27032303071629,Internal Medicine
The General Medical Centre Br Of G M C Healthcare LLC,25.099381627947,55.17727698659223,Pediatrics
Dr. Kamkar Medical and Physiotherapy Center,25.087613496021447,55.31327445996489,General Practice
Al Karama Medical Center,25.237953306255527,55.30467907631645,General Surgery
Duraiya Kamal Medical Clinic,25.2684,55.305,General Practice
Dr. Nicolas and Asp Centre,25.1915,55.2323,Orthodontics
Emirates International School Clinic,25.135,55.2111,Nursing
Saleem Polyclinic,25.232927078093816,55.277727350832855,General Practice
National Medical Center,25.2375,55.2746,Orthodontics
Dubai Transport Company Clinic,24.99506484621555,55.110736276859136,General Practice
Dubai Specialized Med. Center and Research Labs,25.250854957872303,55.41646331553852,General Practice
Dubai Physiotherapy & Family Medicine Clinic L.L.C,25.2152,55.2511,Physiotherapy
Al Taif Medical Centre,25.2739,55.308,General Dentistry
Medical International Specialist Centre,25.142447571293584,55.20616211933569,Otolaryngology
Unicare Medical Center,25.254831391365045,55.303483409600574,Internal Medicine
Khayber Medical Center,25.271,55.3123,General Practice
Al Noor Polyclinic Deira LLC,25.2756,55.3125,Internal Medicine
ANCHASSY SMILE DENTAL AND AESTHETIC CLINIC L.L.C,25.22068564340626,55.25531370503879,General Dentistry
Al Falah Medical Clinic,25.27441208015786,55.30591485988801,General Practice
Scandinavian Dental Clinic,25.2242,55.2646,General Dentistry
Al Mansoor Medical Center,25.261370609256197,55.29948607204132,General Practice
Medical Diagnostic and Imaging Center Polyclinic(Medic),25.2563,55.3005,Diagnostic Radiology
Aster Al Nahda Medical Center Br Of Dm Healthcare,25.292071179880416,55.36943721990136,General Practice
Nasser Clinic,25.271952417702668,55.38218233739527,General Practice
Community Medical Center,25.239314739567348,55.28043952597008,Obstetrics and Gynecology
ASTER MEDICAL CENTRE REM RAAM BR OF DM HEALTHCARE LLC ,25.002132668183187,55.25306071159919,General Practice
NEW APOLLO POLYCLINIC L L C,25.2449,55.303,General Practice
Al Aliaa Polyclinic,25.2027,55.2417,Obstetrics and Gynecology
Al Dana Medical Polyclinic,25.2598,55.29,General Dentistry
Ali Medical Center,25.2747,55.3102,General Practice
Achira Clinics,25.26515268828582,55.3216725036923,General Dentistry
American Hospital Dubai LLC,25.2356,55.3132,Radiation Oncology
Zulekha Medical Center,25.267816382942343,55.37896035791884,Pediatrics
Allied Medical Centre,25.2329,55.2811,Radiology
Dr. Moopenâ€™S Medical Center - Br Of(D M Healthcare L.L.C),25.241601552050643,55.30547460235072,General Practice
Bright Way Dental Clinic,25.24377116919963,55.34025806151553,General Dentistry
Al Qudra Medical Clinic,25.223012259922477,55.28241956426707,General Surgery
Holistic Healing Medical Center,25.134298391663595,55.19967938778475,Homeopathy
Falcon Medical Clinic,25.260475121948524,55.29818589231911,General Dentistry
Al Amal Polyclinic,25.230310800548907,55.27657214883938,General Practice
Dr. Kayasseh Medical Clinic LLC ,25.2375,55.2761,Gastroenterology
Doctors Clinic LLC,25.2687,55.3049,Dermatology
Liverpool Medical Clinic,25.2596315648642,55.287434142134416,General Practice
Laser Medical Center LLC,25.239446997123636,55.27073813315236,General Dentistry
Hadi Clinic,25.244359876210257,55.33974665020688,General Dentistry
NABTA HEALTH CLINIC L.L.C,25.192,55.2336,General Practice
Mediclinic Welcare Hospital LLC,25.2468,55.3399,Gastroenterology
Liberty Dental Clinic,25.186807132481817,55.22890401408684,Laser in Dentistry
Ibn Sina Medical Center,25.26615728939827,55.32033954198051,Obstetrics and Gynecology
RAHIF POLY CLINIC,25.25729217568902,55.39760914636347,General Dentistry
Kaul Clinic,25.25648833759782,55.29495287512001,Internal Medicine
DR FAIEZ GHANAM DERMATOLOGY AND COSMETIC AND LASER L.L.C,25.223667416745077,55.257160551897485,Dermatology
Jansons Medical Center,25.26264632850393,55.289752967543976,General Practice
Ibn Al Haitham Medical Center,25.2457,55.3072,General Dentistry
Jupiter Al Qusais Polyclinic LLC,25.2697,55.3799,General Practice
GEMS AL KHALEEJ INTERNATIONAL SCHOOL (Br of FZEGEMS WELLINGTON ACADEMY),25.1857491910177,55.43644280154909,Nursing
ARAB UNITY SCHOOL L.L.C,25.236348198388537,55.4297943434744,General Practice
Dubai English Speaking School,25.23895282300677,55.31729794112529,Nursing
The Indian High School Clinic,25.2405,55.3153,General Practice
Japanese School,25.19257626449141,55.25443309430644,Nursing
Little Flower English School,25.27896274150576,55.338468235470216,Nursing
Marhaba Medical Center,25.270516974297813,55.31598261363968,Pediatrics
Al Iman Pvt. School,25.170577,55.150404,General Practice
Omaya Medical Center,25.26370998393408,55.31628943139887,General Practice
Le Meridien Hotel Dubai,25.24637342939583,55.34918149609722,Nursing
Dubai Police General,25.2765,55.3557,Family Medicine
Dr. Mohannad Dental Clinic,25.21466221166937,55.37525480798213,General Dentistry
Al Murjan Medical Center,25.1578,55.2312,General Practice
NEW AL SHEFA MODERN CLINIC L.L.C,25.222154860408253,55.26401275774023,Psychiatry
Josephs Qusais Polyclinic Br of Amber Clinics L.L.C,25.271169644853515,55.37644409594751,General Practice
Al Sanaiya Medical Clinic,25.2647,55.4121,General Practice
Getwell Medical Center,25.256629321456497,55.30058228158127,Cardiology
Maisan Medical Clinic,25.232912627866256,55.43265771283224,Pediatric Dentistry
Oral Implantology Medical Center,25.25564736466845,55.32955315937904,Prosthodontics
Union Medical Centre,25.2475,55.3031,Orthopedic Surgery
Dubai Herbal and Treatment Center,25.2111,55.3115,Family Medicine
New Sanaiya Clinic,25.2654,55.4256,General Practice
Globehealth General Clinic L L C,25.237465051392327,55.27536031043723,General Practice
My Nursery,25.20435308742173,55.25294724286246,Nursing
Cosmopolitan Medical Centre,25.262665499840843,55.29242572583915,General Practice
Hersche Medical Center L L C,25.21585547998316,55.25994223615038,General Dentistry
Le Royal Meridien Beach ResortandSpa,25.0846,55.1403,General Practice
Docib Clinic LLC,25.2814,55.4108,Endodontics
Dermacare Skin Center,25.22096048111582,55.26263301265916,Dermatology
Prime Medical Center Jumeirah L L C,25.1825120626252,55.23689143364805,Pediatrics
Primacare Speciality Clinics L L C,25.258,55.2986,Obstetrics and Gynecology
Dr. Radakrishnan Medical Centre,25.27305447765174,55.33028598270069,General Practice
Front Line Medical Center LLC,25.248008225375955,55.30034549210187,Homeopathy
Munich Dental Clinic,25.232309121073268,55.43291341890351,General Dentistry
Medcare Hospital(L.L.C),25.183355046632396,55.24276314063459,General Surgery
Dr. Rasool Healthcare Centre,25.2663,55.3095,General Dentistry
ADAM MEDICAL CENTRE L.L.C,25.2447,55.3151,General Dentistry
Al Dehyafa Specialized Orthodontic and Dental Clinic ,25.24042363195519,55.27199729388629,Prosthodontics
Samaa Medical Center,25.1816,55.2355,Dermatology
Al Rafa Polyclinic -Br Dm Healthcare L.L.C,25.0983911056714,55.17356663002725,Obstetrics and Gynecology
AL NOOR POLYCLINIC AL SATWA (BR OF AMBER CLINICS L.L.C),25.22921831062829,55.273869244563,General Practice
Blue Tree Clinics L L C,25.14875170651273,55.21140529636949,Chiropractor
Medical Specialists Center(Branch),25.11504541607667,55.19439476134825,General Practice
SHAMMA CLINIC BY NOVOMED LLC,25.22851804533061,55.26209311340512,General Practice
Harley International Medical Clinic,25.24823569615621,55.28586209377896,General Practice
Medical Village,25.18083459234348,55.223963018558194,General Surgery
Saudi German Hospital,25.0975296496162,55.185559148499,General Surgery
Moopen Al Qoze Medical Center,25.14740531619721,55.24603140707729,General Practice
Dr. John Clinic,25.27254000192748,55.371620091151726,General Practice
N.M.C SPECIALTY HOSPITAL LTD - DUBAI BRANCH,25.28999950176429,55.36928955267036,General Surgery
Mediclinic Al Sofouh Llc Dsc,25.101497909077537,55.160467587462776,Family Medicine
Go Dental Clinic L L C,25.24765351193457,55.30060148950446,Endodontics
Al Waha Clinic,25.260239378572685,55.29133960609817,"Internal Medicine (Endocrinology, Diabetes And Metabolism)"
Primecorp Medical Center L L C,25.270399818010542,55.32186386492707,General Practice
Dubai Kings Private School,25.1354491012405,55.19609805201664,Nursing
Keerthi Medical Center,25.245287327203105,55.30234384183146,General Practice
Le Meridien Mina Seyahi Beach & Water Park ,25.09191628286393,55.14724701480628,Nursing
German International School Dubai,25.1077155531076,55.40133990005674,Internal Medicine
Girls National Charity School,25.238789375894925,55.34690491860299,General Practice
Dr. Ismail Medical Center(Br Muhaisanah),25.2742,55.4276,General Practice
Uptodate Medicare Centre,25.2376,55.2761,Pediatrics
Al Aman Medical Center,25.2679,55.3052,General Practice
International Modern Hospital,25.2489,55.2833,General Surgery
Sheffield Private School,25.2931584622437,55.38584356771624,General Practice
DOCTORS CENTER POLY CLINIC,25.1719,55.2189,Diagnostic Radiology
Digital Ears Trading(L.L.C),25.260785098803787,55.29914577144795,Audiology
Good Health Polyclinic,25.2713,55.3796,General Surgery
Dr. Nicolas and Asp Centre(Br Marina Walk),25.0848221407958,55.14870404213564,General Dentistry
Al Sanaiya Medical Clinic- Br,25.1228,55.2364,General Dentistry
New Lotus Medical Center L.L.C,25.275378563683297,55.38290212903164,General Practice
Al Qusais Star Polyclinic,25.284837624081675,55.38935766560528,General Practice
Dubai Homeopathy Health Center,25.17443538645764,55.230784881911454,Homeopathy
Green Community Br Of G M C Healthcare LLC,25.00408415770532,55.16512396805712,General Dentistry
Emirates International Private School(Br),25.06512711292604,55.15544129540692,General Practice
Dr. Nicolas and Asp Centre(Branch Mirdif),25.224094965405843,55.42496300136909,General Dentistry
Dr. Ismail Medical Center,25.132810969045924,55.25314373241983,General Practice
Our Own High School Clinic,25.199482218873225,55.39762764707415,General Practice
Dubai Sky Clinic Dental Center,25.25161148285559,55.30140567174104,General Dentistry
RALS HEALTHCARE (BR OF ABD ULWAHED BIN SHABIB INVESTMENT GROUP L.L.C),25.280833471655043,55.38168228103329,General Dentistry
Dubai Star Poly Clinic,25.23574586494382,55.43721707542933,General Dentistry
Dr. Mohmmed Al Zubaidy Clinic,25.26625489952072,55.31954688072268,Dermatology
Dr. Reena Beegum Clinic,25.26990962084471,55.31340998474585,General Dentistry
Vila Fortuny Laser Centre,25.1765,55.232,General Dentistry
Al Shaab Medical Centre,25.276609989838,55.33713807357041,General Practice
M I D A C Medical Center,25.232458319729147,55.38417989319139,General Dentistry
Al Rashidiyah Alnoor Polyclinic,25.232531638664224,55.383978043651375,Ophthalmology
Al Karama Medical Center(Al Qoze Br),25.128913109348503,55.23251392797605,General Dentistry
Al Ittihad Private School- Jumeira,25.181490337865768,55.24041284633746,General Practice
OLIVIA MEDICAL CENTRE LLC,25.14992069121413,55.2119774700307,Obstetrics and Gynecology
Medi Centres Polyclinic,25.046527325480696,55.244787779325705,Internal Medicine
storax life style clinic L.L.C,25.14402415301231,55.20772916415795,General Practice
Mediclinic Al Qusais Clinic LLC,25.28222053587983,55.3883030247554,Pediatrics
Care Plus Medical Center,25.0101251900429,55.103686815179046,General Practice
Dubai London Clinic(Festival City Branch),25.22307713588553,55.356399369574646,Family Medicine
Dr. Ali Alkaissi Dental Clinic,25.262293850986097,55.32734228462869,Prosthodontics
Prime Medical Center Sheikh Zayed Road L L C,25.15504255427528,55.22888001059669,General Surgery
North American International School L.L.C,25.236384299413466,55.43279902105279,General Practice
Canadian Specialist Hospital,25.2775153072907,55.3486650983191,Orthopedic Surgery
Vlcc International(L.L.C)Shik Zayed Br,25.2076,55.2679,Dermatology
Arya Clinic,25.2261,55.2658,General Practice
Modern Family Clinic,25.247004185233347,55.308829839572496,Obstetrics and Gynecology
Al Quoz City Star Polyclinic,25.15214650732875,55.2420791343664,General Practice
Sekher Medical Clinic,25.1551,55.2474,General Practice
Shefa Medpoint Clinic L.L.C.,25.1827,55.2255,Obstetrics and Gynecology
Champs Elysees Aestethic Medical Center,25.152163193093365,55.21920555520366,General Practice
Advanced Care Medical Center,25.1565,55.2476,General Practice
Axon Medica Polyclinic Br Of Axon Medica Investment Management L L C,25.22873800625959,55.3845456868244,General Practice
Mediclinic Mirdif Clinic LLC,25.225242502079556,55.42576421057379,Family Medicine
Uae Genetic Diseases Association,25.230206265137745,55.260843392513,Clinical Pathology
Emirates Airline Clinic(Br),25.241906466565737,55.36500676527012,Family Medicine
Mediclinic Arabian Ranches Clinic,25.05656473980499,55.27062190907857,Family Medicine
Mediclinic Meadows Clinic,25.06412744524429,55.15541707170676,Pediatrics
Al Azhar Clinic,24.972,55.1706,General Practice
Ruby Clinic,25.162808557240428,55.41585243672425,General Dentistry
Oris Dental Center,25.221531336464803,55.4346304703962,Endodontics
Apple Clinic LLC,25.1611,55.4048,General Practice
Mankhool Dental Clinic,25.246674287989848,55.3074177948077,Endodontics
BELLA ROSE MEDICAL CENTER L.L.C,25.295429495132986,55.351017847175626,General Dentistry
Al Nasr Club,25.240966868610343,55.31216151086177,Family Medicine
Raffles World Academy Br Of Raffles International School L L C,25.14097706050889,55.19712038475851,General Practice
Al Rafa Polyclinic-International City- Br Dm Healthcare L.L.C,25.168057919960116,55.40348192960337,Otolaryngology
Euromed Clinic Centre,25.16606172071803,55.21364496463042,General Dentistry
SHAMS DENTAL CLINIC LLC,25.223298235819883,55.25644054641505,Pediatric Dentistry
Ebsaar Eye Surgery Centre,25.229808904535663,55.26050844990528,Ophthalmology
Access Clinic Dip Br Of Dm Healthcare LLC,24.97049691421659,55.170408875138,General Practice
Dr Joy Dental Clinic Llc Branch,25.217939182743397,55.41793261997172,General Dentistry
Medcare Medical Center,25.222067973909372,55.43405896753506,Internal Medicine
Quality Care Dental Center,25.177127051822733,55.245627953821135,General Dentistry
Mercato Family Clinic,25.217244785173968,55.25294075024011,General Surgery
New Al Musalla Medical Centre,25.27517521098088,55.42203303189732,General Practice
Town Center Nursery Br( Of Raffles International School(L.L.C),25.05334363775741,55.17073965011114,Nursing
Arwa Dental Clinic,25.255394929538184,55.32992720554547,General Dentistry
Northwest Clinic For Diabetes And Endocrinoloy,25.1504,55.2131,"Internal Medicine (Endocrinology, Diabetes And Metabolism)"
Karama Medical Centre(Br Dip),24.980861954414262,55.15658224006663,General Practice
Dr. Sanjay Medical Centre,25.1492,55.2461,General Practice
Aesthetics International Plastic Surgery Clinic LLC,25.142878088751647,55.20700252960416,Plastic Surgery
Abeer Al Noor Poly Clinic,25.275207884115385,55.37452464511668,Ophthalmology
The Clinic Skin111,25.21323325174244,55.28336414004757,General Dentistry
Dr Deena Alqedrah Medical Center,25.18593031394257,55.27431274998376,General Surgery
German Dental Center Dmcc,25.064246553457263,55.13821176886393,Oral Surgery
Gardens Medical Centre,25.047323232127948,55.130410545539306,General Practice
White Smile Dental Clinic,25.296576358204653,55.37781073099707,General Dentistry
Prime Medical Center Bur Dubai L L C,25.25277473621366,55.30209329058509,General Dentistry
Cosmocare Medical Center,25.236146980920093,55.27787541975759,Dermatology
Dr Joy Dental Clinic Llc Branch,25.144460477486035,55.20818773121834,Oral and Maxillofacial Surgery
Al Biraa Clinic,25.14409021948188,55.20774731764232,General Practice
Badr Al Samaa Medical Centre,25.258193851454298,55.298301691533,General Practice
Obagi Medi Spa,25.1979,55.2796,General Practice
Medcare Medical Center Mirdif Br,25.217894774188803,55.40694443363117,Pediatrics
Aster Medical Center,25.269544386580964,55.38066663928086,Internal Medicine
H.M.R.T Polyclinic,25.287933439507132,55.3654737265332,Implantology
Dr Madiha Al Haddad Clinic,25.23745623350351,55.27528666175003,Pediatrics
Dr. Samiha Abdalla Lutfi Clinic,25.220915924707715,55.44062268149301,General Surgery
Iranian Towheed Girls School,25.25325712750224,55.30673649167205,Nursing
Jupiter Al Nahda Polyclinic,25.295738413891225,55.37574606306754,Endodontics
Health Family Clinic,25.25217492851335,55.303606728956446,General Dentistry
Al Garhoud Private Hospital LLC,25.2522429554281,55.3426658597947,Urology
Dr Ismail New Polyclinic,25.04892175249905,55.13142796799571,General Practice
Emirates Hospitals And Clinics Llc Branch,25.085214862632647,55.14163888880052,General Dentistry
M S M Pro Derma Poly Clinic LLC ,25.17900904088603,55.23448646968422,Dermatology
Mediclinic City Hospital FZ-LLC,25.230635850723317,55.32296857051114,Anesthesia
Dr. Mansoori Clinic,25.25276380073512,55.33448827349857,General Dentistry
Dr Aburas Dental Center LLC (Branch),25.22400144492603,55.351470999024336,General Dentistry
Sawsan Medical Center,25.25037874202471,55.453706085295394,Dermatology
Riviera Medical And Dental Centre LLC,25.16110444464359,55.22043959715974,General Dentistry
Karama Medical Center - Br Jumeirah Village,25.06601509846325,55.20980248878297,General Dentistry
Panacea Medical And Wellness Centre,25.2508,55.3107,Pediatrics
Anwaar Medical Center,25.2293840710643,55.26103516191499,Ophthalmology
CITICARE MEDICAL CENTER LLC ,25.066016067944727,55.24363776220349,General Practice
NAJI ALDAKHIL MEDICAL CENTER L.L.C.,25.285605029226545,55.351439444399766,General Dentistry
Amber Clinics LLC,25.264993007318363,55.32111514364865,Diagnostic Radiology
Aster Jabal Ali Medical Center- Br Dm Healthcare LLC,25.006643706863123,55.105547756619394,General Practice
Top Medical Center L.L.C.,25.085585008033103,55.14333528038879,General Practice
Al Azhar Clinic -Branch,25.00704828803673,55.106496992224734,General Practice
THE LIGHTHOUSE ARABIA LLC,25.15935899047629,55.21968234140291,Clinical Psychology
New Sanaiya Clinic - Br Horalanz,25.27656737159903,55.3318361622719,General Practice
Collegiate American School(Br Of Innoventure Educational Investments(L.L.C),25.150930897828403,55.20889768582451,Nursing
HEALTHYLIFE MEDICAL CENTER DMCC,25.062065146465027,55.13820854195024,Physiotherapy
Algebra Polyclinic,25.25507423510473,55.305111202319225,General Practice
SAUDI GERMAN CLINICS AKOYA (BR OF SAUDI GERMAN CLINICS L.L.C),24.996918495767748,55.38345814687701,Pediatrics
Novitas Clinic LLC,25.165320571904168,55.39765652017194,General Practice
ADVANCED CARE MEDICAL CENTER L.L.C (BRANCH),24.99683767477038,55.14135196678328,General Practice
Prestige smile clinic,25.25638486301256,55.33335952732654,Plastic Surgery
WADI AL SAFA MEDICAL CENTER L.L.C,25.09929992260886,55.374488001740886,General Practice
ASTER HOSPITAL SONAPUR LLC,25.26495244867227,55.43380685658539,Anesthesia
DERMA TECH POLY CLINIC L.L.C,25.26046292393027,55.32102663075115,General Practice
APOLLO CLINIC L.L.C,25.24654753974196,55.30796033335413,General Dentistry
AL RUKN MEDICAL CENTER L L C - DUBAI BRANCH,24.995666691725564,55.14171558365245,General Practice
NATURES LIFE EXPRESS CLINIC LLC,25.212026697596148,55.25779544357032,General Practice
Al Futtaim Healthcare Single Person Company LLC - Company Clinic,25.15939741397757,55.32557783653524,General Practice
THE HUB MEDICAL CLINIC DWC - LLC ,24.886072892806222,55.12279545176376,General Practice
LIFE CLINIC  LLC,25.06713839643985,55.217351587902336,Orthopedic Surgery
QUEENS MEDICAL CENTER L.L.C  (BRANCH),25.261369250869077,55.32695111078737,General Dentistry
Celia Aesthetic Clinic LLC,25.22845479110571,55.28604494797421,General Practice
NOVITAS CLINIC LLC BRANCH,25.008140736253228,55.13343689989873,General Practice
ANYACOSM MEDICAL CLINIC L.L.C,25.20924038841809,55.27293443231749,Dermatology
Maison Elite,25.247159277261822,55.34287358728461,Dermatology
YOUR CENTER POLYCLINIC L.L.C ,25.02878263010821,55.18006644358344,General Practice
NAJMAT AL SHIFA MEDICAL CENTER LLC,25.17334229398673,55.400520238121736,General Dentistry
SAHARA DENTAL CLINIC AND ORTHODONTIC CENTRE L.L.C (BRANCH),25.25353845393135,55.32882853684263,General Dentistry
The Speech Clinic FZ LLC,25.22877339754871,55.32395258035991,Physiotherapy
ALNOOR SOUTH POLYCLINIC DWC LLC,24.94388198922838,55.22271582054751,Pediatrics
ME ONE MEDICAL CENTER LLC,25.08923161103031,55.19079529127251,General Dentistry
Global Hair Centre Poly Clinic,25.04649072450435,55.23564694725312,Dermatology
GSM MEDICAL CENTRE LLC,25.26209938601355,55.30287155551787,General Practice
Al Tadawi Healthcare LLC Branch,25.26323890720835,55.389335037271465,General Practice
PROCARE AVENUES MEDICAL CENTER L.L.C,25.23344235941244,55.43187505644848,General Dentistry
DENTAL HUB CLINIC,25.114893740853123,55.20518783257943,General Dentistry
L L H MEDICAL CENTER L.L.C (BRANCH),24.97359901012759,55.207364957829135,Internal Medicine
DR.SG POLY CLINIC,25.242227678870066,55.29707909029037,General Dentistry
THE FIFTH DIMENSION ELEMENTARY SCHOOL LLC,25.141142788054907,55.36609844995128,Nursing
Al Hana Modern Medical Center L.L.C,25.23670064753409,55.27969990862093,General Practice
PEN Consultancy FZE,25.22727113353193,55.28895325175271,Clinical Psychology
EVERYOUNG CLINIC LLC,25.22425163539613,55.41772604925131,General Dentistry
BLENDED WELLNESS AESTHETIC CLINIC  FZCO,25.11290067546704,55.13932324995451,General Practice
